stop_id,stop_code,stop_name,stop_desc,stop_lat,stop_lon,zone_id,stop_url,location_type,parent_station,stop_timezone,wheelchair_boarding
10,99994,"STEEL PLAZA STATION",,40.439562,-79.995332,FZ,,,,,0
100,99906,"WILLOW STATION",,40.365469,-80.026193,01,,,,,0
10005,10005,"KEEPORT DR + YOUNGRIDGE",,40.340754,-79.981175,01,,,,,0
10016,10016,"BROWNSVILLE RD + NOBLES LN",,40.403958,-79.990230,01,,,,,0
10018,10018,"BROWNSVILLE RD + THE BOULEVARD",,40.401127,-79.989317,01,,,,,0
10019,10019,"BROWNSVILLE RD + E MEYERS AVE",,40.399887,-79.989153,01,,,,,0
10022,10022,"BROWNSVILLE RD + CRAILO AVE",,40.396720,-79.987743,01,,,,,0
10023,10023,"BROWNSVILLE RD + AGNEW RD",,40.395140,-79.986830,01,,,,,0
10025,10025,"BROWNSVILLE RD + WOODFORD AVE",,40.393302,-79.986562,01,,,,,0
10026,10026,"BROWNSVILLE RD + PARKFIELD ST",,40.391477,-79.986685,01,,,,,0
10027,10027,"BROWNSVILLE RD + OVERBROOK BLVD",,40.389384,-79.985526,01,,,,,0
10028,10028,"BROWNSVILLE RD + #2336",,40.388190,-79.984822,01,,,,,0
10029,10029,"BROWNSVILLE RD + BISCAYNE DR",,40.387436,-79.984055,01,,,,,0
10030,10030,"BROWNSVILLE RD + CLIFTON BLVD",,40.386830,-79.981846,01,,,,,0
10032,10032,"BROWNSVILLE RD + CHURCHVIEW AVE",,40.385858,-79.979016,01,,,,,0
10033,10033,"BROWNSVILLE RD + MAYTIDE ST",,40.384581,-79.978009,01,,,,,0
10035,10035,"LEBANON CHURCH RD + OTT DR FS",,40.342936,-79.964138,01,,,,,0
10038,10038,"LEBANON CHURCH RD + REGIS AVE",,40.347555,-79.952147,01,,,,,0
1007,1007,"CENTER AVE + COLUMBIA AVE FS",,40.520193,-80.041974,01,,,,,0
10075,10075,"HWY RT 885 + HAMPTON RD",,40.327536,-79.931088,01,,,,,0
10078,10078,"HWY RT 885 + LEWIS RUN",,40.332344,-79.933663,01,,,,,0
1008,1008,"CENTER AVE + BRONX AVE",,40.520542,-80.039529,01,,,,,0
1009,1009,"CENTER AVE + CHALFONTE AVE",,40.520324,-80.038181,01,,,,,0
101,99905,"WILLOW STATION",,40.365186,-80.026632,01,,,,,0
1010,1010,"CENTER AVE + WAVERLY AVE",,40.517416,-80.035841,01,,,,,0
1011,1011,"CENTER AVE + PERRY HWY",,40.518114,-80.031798,01,,,,,0
10115,10115,"LEBANON CHURCH RD + BOMBARDIER",,40.346247,-79.957045,01,,,,,0
10120,10120,"MIFFLIN RD + SLATE",,40.381351,-79.927594,01,,,,,0
10127,10127,"E CARSON ST + 27TH ST",,40.427077,-79.966831,01,,,,,0
10128,10128,"E CARSON ST + 26TH",,40.427492,-79.968210,01,,,,,0
10129,10129,"SOUTH CAMPUS DRVWY + LIBRARY ENTRANCE",,40.330153,-79.923501,01,,,,,0
1013,1013,"CENTER AVE + PERRY HWY FS (STEPS)",,40.518018,-80.032448,01,,,,,0
10130,10130,"HWY RT 885 + GORDENS",,40.335958,-79.936625,01,,,,,0
10131,10131,"HWY RT 885 + HUSTON",,40.338381,-79.937652,01,,,,,0
10144,10144,"HWY RT 51 + PRIMANTI BROTHERS",,40.323893,-79.943333,01,,,,,0
10147,10147,"FOURTH AVE + PPG ENTRANCE",,40.440204,-80.003579,01,,,,,0
1015,1015,"CENTER AVE + WAVERLY AVE",,40.517462,-80.035564,01,,,,,0
10157,10157,"BALDWIN ST + HOLY ANGEL SCHOOL",,40.387721,-79.932638,01,,,,,0
10158,10158,"BALDWIN ST + RAMP ST BRIDGE",,40.386967,-79.932676,01,,,,,0
10159,10159,"MIFFLIN RD + HAYS SCHOOL",,40.382969,-79.929993,01,,,,,0
1016,1016,"CENTER AVE + CHALFONTE AVE",,40.520224,-80.037876,01,,,,,0
10160,10160,"MIFFLIN RD + #669",,40.381897,-79.928452,01,,,,,0
1018,1018,"CENTER AVE + COLUMBIA AVE FS",,40.520235,-80.042286,01,,,,,0
1019,1019,"CENTER AVE + CORNELL AVE",,40.519643,-80.043542,01,,,,,0
10197,10197,"HWY RT 885 + SPARTZ DR",,40.328124,-79.931677,01,,,,,0
102,99904,"BON AIR STATION",,40.408156,-80.003178,01,,,,,0
10214,10214,"HWY RT 885 + HUSTON",,40.338258,-79.937829,01,,,,,0
10215,10215,"HWY RT 885 + GORDENS",,40.335938,-79.936816,01,,,,,0
10222,10222,"HWY RT 51 + PRIMANTI BROTHERS",,40.324586,-79.943816,01,,,,,0
10246,10246,"WALNUT ST + LINDEN",,40.314624,-79.829663,01,,,,,0
10248,10248,"WALNUT ST + #4913",,40.316331,-79.832916,01,,,,,0
10249,10249,"WALNUT ST + LARCH FS",,40.318385,-79.834048,01,,,,,0
10251,10251,"WALNUT ST + GRANT",,40.319932,-79.835255,01,,,,,0
10252,10252,"OLYMPIA DRIVEWAY AT LIFE SPAN",,40.322249,-79.834844,01,,,,,0
10254,10254,"WALNUT ST + EXXON STATION",,40.325893,-79.839409,01,,,,,0
10255,10255,"WALNUT ST + EDEN PARK FS",,40.327762,-79.840427,01,,,,,0
10258,10258,"WALNUT ST + 33RD FS",,40.330177,-79.842326,01,,,,,0
10259,10259,"WALNUT ST + 31ST FS",,40.330952,-79.843547,01,,,,,0
10260,10260,"WALNUT ST + 30TH FS",,40.331936,-79.845149,01,,,,,0
10262,10262,"WALNUT ST + 28TH",,40.332712,-79.846427,01,,,,,0
10263,10263,"WALNUT ST + 27TH FS",,40.333570,-79.847826,01,,,,,0
10265,10265,"WALNUT ST + 25TH FS",,40.334711,-79.849731,01,,,,,0
10266,10266,"WALNUT ST + CP INDUSTRIES",,40.335701,-79.851522,01,,,,,0
10267,10267,"WALNUT ST + SUNOCO STATION",,40.336469,-79.852917,01,,,,,0
10271,10271,"WALNUT ST + 12TH",,40.343472,-79.863172,01,,,,,0
103,99903,"BON AIR STATION",,40.407736,-80.003113,01,,,,,0
10364,10364,"WALNUT ST + 9TH",,40.347303,-79.864216,01,,,,,0
10370,10370,"WALNUT ST + 13TH",,40.342472,-79.862240,01,,,,,0
10371,10371,"WALNUT ST + 14TH",,40.341186,-79.860977,01,,,,,0
10372,10372,"WALNUT ST + 15TH FS",,40.339546,-79.859517,01,,,,,0
10373,10373,"WALNUT ST + SUNOCO STATION",,40.336416,-79.852997,01,,,,,0
10374,10374,"WALNUT ST + CP INDUSTRIES",,40.335656,-79.851621,01,,,,,0
10375,10375,"WALNUT ST + 25TH",,40.334550,-79.849625,01,,,,,0
10377,10377,"WALNUT ST + 28TH",,40.332788,-79.846717,01,,,,,0
10378,10378,"WALNUT ST + #2906",,40.331945,-79.845342,01,,,,,0
10380,10380,"WALNUT ST + 33RD",,40.329979,-79.842189,01,,,,,0
10382,10382,"WALNUT ST + EDEN PARK",,40.327422,-79.840363,01,,,,,0
10383,10383,"WALNUT ST + EXXON STATION",,40.325772,-79.839474,01,,,,,0
10384,10384,"WALNUT ST + LONG RUN",,40.324179,-79.839157,01,,,,,0
10386,10386,"WALNUT ST + GRANT",,40.319853,-79.835293,01,,,,,0
10388,10388,"WALNUT ST + LARCH",,40.318261,-79.834106,01,,,,,0
10389,10389,"WALNUT ST + WORTHINGTON",,40.316427,-79.833302,01,,,,,0
10390,10390,"WALNUT ST + CENTER",,40.315688,-79.831718,01,,,,,0
10391,10391,"WALNUT ST + LINDEN",,40.314645,-79.829811,01,,,,,0
104,99902,"OVERBROOK JUNCTION",,40.365906,-80.027101,01,,,,,0
1043,1043,"BABCOCK BLVD + THOMPSON",,40.510838,-79.993691,01,,,,,0
1044,1044,"THOMPSON RUN RD + RADCLIFFE",,40.517544,-79.993546,01,,,,,0
1045,1045,"THOMPSON RUN RD + WOODBRIDGE DR",,40.518309,-79.992907,01,,,,,0
1046,1046,"THOMPSON RUN RD + #218",,40.519772,-79.991928,01,,,,,0
10464,10464,"WALNUT ST + 5TH",,40.350901,-79.864903,01,,,,,0
1047,1047,"THOMPSON RUN RD + MILLER",,40.522286,-79.990921,01,,,,,0
1048,1048,"THOMPSON RUN RD + LOIRE VALLEY",,40.524227,-79.988714,01,,,,,0
105,99901,"OVERBROOK JUNCTION",,40.365888,-80.027136,01,,,,,0
1050,1050,"THOMPSON RUN RD + SIEBERT",,40.528952,-79.990181,01,,,,,0
10518,10518,"LONG RUN RD + SUNSET",,40.335058,-79.811558,01,,,,,0
1052,1052,"THOMPSON RUN RD + ABARD",,40.531605,-79.990242,01,,,,,0
1053,1053,"THOMPSON RUN RD + HODIL",,40.534733,-79.990341,01,,,,,0
1055,1055,"THOMPSON RUN RD + CHERRINGTON",,40.536466,-79.990282,01,,,,,0
10550,10550,"EDEN PARK BLVD + MCKEESPORT HIGH SCHOOL DRVWY",,40.344907,-79.830532,01,,,,,0
10552,10552,"EDEN PARK BLVD + MAYFAIR",,40.343353,-79.829344,01,,,,,0
1056,1056,"THOMPSON RUN RD + BERKLEY MEADOWS",,40.538152,-79.989930,01,,,,,0
1057,1057,"THOMPSON RUN RD + WHITE OAK",,40.541928,-79.992309,01,,,,,0
10579,10579,"VERSAILLES AVE + CRAIG",,40.345079,-79.839339,01,,,,,0
1058,1058,"THOMPSON RUN RD + SUTTER",,40.543215,-79.993360,01,,,,,0
10582,10582,"VERSAILLES AVE + HAMILTON",,40.345428,-79.844212,01,,,,,0
10583,10583,"VERSAILLES AVE + MAPLE",,40.345531,-79.845792,01,,,,,0
10584,10584,"VERSAILLES AVE + PACKER",,40.345661,-79.847710,01,,,,,0
10585,10585,"VERSAILLES AVE + EVANS",,40.345863,-79.849266,01,,,,,0
10588,10588,"EVANS AVE + COLFAX",,40.348013,-79.849425,01,,,,,0
1059,1059,"AMITY DR + SUTTER",,40.543755,-79.992481,01,,,,,0
10592,10592,"MCKEESPORT TRANSPORTATION CENTER + BAY #4",,40.352267,-79.861248,01,,,,,0
10593,10593,"LONG RUN RD + COOLSPRINGS",,40.332924,-79.813602,01,,,,,0
1060,1060,"AMITY DR + BLAZE",,40.544802,-79.993181,01,,,,,0
1061,1061,"AMITY DR + #212",,40.545857,-79.994511,01,,,,,0
1062,1062,"AMITY DR + LINGAY",,40.547461,-79.994557,01,,,,,0
10628,10628,"EDEN PARK BLVD + VICTORY DR",,40.345673,-79.830978,01,,,,,0
10629,10629,"EDEN PARK BLVD + ONEIL",,40.347419,-79.832327,01,,,,,0
1063,1063,"AMITY DR + CARRIAGE HILL",,40.548927,-79.996315,01,,,,,0
1066,1066,"MCINTYRE DR + CHARTERWOOD",,40.551776,-80.000555,01,,,,,0
10666,10666,"MCCLEARY ST + FORD",,40.346224,-79.838546,01,,,,,0
10667,10667,"MCCLEARY ST + VERSAILLES",,40.345069,-79.838679,01,,,,,0
10668,10668,"EVANS AVE + LAMONT",,40.346713,-79.849343,01,,,,,0
1068,1068,"LAURELWOOD DR + FENWICK",,40.552144,-80.002260,01,,,,,0
1069,1069,"LAURELWOOD DR + #126",,40.551855,-80.005049,01,,,,,0
1070,1070,"LAURELWOOD DR + ENNERDALE",,40.551525,-80.006574,01,,,,,0
10700,10700,"LINCOLN HWY + LINCOLN SQ SR CITIZEN HOME",,40.387370,-79.828141,01,,,,,0
1071,1071,"REMINGTON DR + #210",,40.552584,-80.007390,01,,,,,0
1072,1072,"REMINGTON DR + WALDWICK",,40.553924,-80.007410,01,,,,,0
1073,1073,"REMINGTON DR + BALMORAL #1",,40.554954,-80.007464,01,,,,,0
1074,1074,"REMINGTON DR + REGENCY",,40.555956,-80.007523,01,,,,,0
10748,10748,"LINCOLN HWY + LINCOLN SQ SR CITIZEN HOME",,40.386925,-79.827746,01,,,,,0
1075,1075,"REMINGTON DR + BALMORAL #2",,40.558210,-80.008644,01,,,,,0
1077,1077,"REMINGTON DR + HAZLETT",,40.559823,-80.010634,01,,,,,0
1078,1078,"REMINGTON DR + PEEBLES",,40.561295,-80.012953,01,,,,,0
10815,10815,"W 5TH AVE + RAMP #1",,40.349985,-79.871699,01,,,,,0
10828,10828,"WALNUT ST + 9TH",,40.346976,-79.864033,01,,,,,0
1083,1083,"HEMLOCK DR + SAMPLE FS",,40.576425,-79.978994,01,,,,,0
10831,10831,"WALNUT ST + 7TH",,40.349058,-79.864512,01,,,,,0
1085,1085,"HEMLOCK DR + #4424",,40.578872,-79.980699,01,,,,,0
10881,10881,"DUQUESNE BLVD + CENTER",,40.363650,-79.842881,01,,,,,0
10884,10884,"2ND ST + KENNEDY",,40.371792,-79.846339,01,,,,,0
10885,10885,"2ND ST + GRANT",,40.373030,-79.846878,01,,,,,0
10886,10886,"GRANT AVE + 1ST",,40.373374,-79.845977,01,,,,,0
10888,10888,"DUQUESNE BLVD + OAKMONT",,40.380765,-79.855038,01,,,,,0
10889,10889,"DUQUESNE BLVD + FAIRMONT",,40.382068,-79.856386,01,,,,,0
10890,10890,"DUQUESNE BLVD + COMMONWEALTH",,40.382941,-79.857302,01,,,,,0
10892,10892,"KENNYWOOD BLVD + HOFFMAN",,40.384975,-79.862540,01,,,,,0
10894,10894,"KENNYWOOD BLVD + GLEN",,40.390578,-79.869040,01,,,,,0
1090,1090,"REMINGTON DR + HAZLETT",,40.560087,-80.011021,01,,,,,0
10902,10902,"8TH AVE + GRANT",,40.409319,-79.898462,01,,,,,0
10903,10903,"8TH AVE + ANDREW",,40.409207,-79.901489,01,,,,,0
10905,10905,"8TH AVE + HEISEL",,40.409062,-79.904030,01,,,,,0
10906,10906,"8TH AVE + DICKSON",,40.408980,-79.905195,01,,,,,0
10907,10907,"8TH AVE + MCCLURE",,40.408826,-79.907397,01,,,,,0
10908,10908,"8TH AVE + ANN",,40.407979,-79.909218,01,,,,,0
10909,10909,"8TH AVE + AMITY",,40.407175,-79.910787,01,,,,,0
10910,10910,"8TH AVE + WEST (HI-LEVEL BRIDGE)",,40.406222,-79.912062,01,,,,,0
10913,10913,"BROWNS HILL RD + IMOGENE RD",,40.415316,-79.924617,01,,,,,0
10914,10914,"MURRAY AVE + LORETTA",,40.421788,-79.928753,01,,,,,0
10915,10915,"MURRAY AVE + LILAC",,40.423092,-79.928628,01,,,,,0
10916,10916,"MURRAY AVE + WELFER",,40.424896,-79.928058,01,,,,,0
10918,10918,"MURRAY AVE + #2825",,40.427736,-79.925852,01,,,,,0
10919,10919,"MURRAY AVE + MORROWFIELD",,40.428223,-79.924777,01,,,,,0
1092,1092,"REMINGTON DR + BALMORAL #1",,40.558434,-80.008812,01,,,,,0
10920,10920,"MURRAY AVE + FORWARD",,40.429877,-79.923403,01,,,,,0
10921,10921,"MURRAY AVE + PHILLIPS",,40.432237,-79.923099,01,,,,,0
10922,10922,"MURRAY AVE + HOBART",,40.433577,-79.922917,01,,,,,0
10923,10923,"MURRAY AVE + BEACON NS",,40.434610,-79.922780,01,,,,,0
10924,10924,"MURRAY AVE + BARTLETT",,40.436209,-79.922831,01,,,,,0
1093,1093,"REMINGTON DR + REGENCY",,40.556194,-80.007591,01,,,,,0
10930,10930,"LEBANON CHURCH RD + RODEO",,40.352940,-79.917364,01,,,,,0
10932,10932,"LEBANON CHURCH RD + POLK",,40.354194,-79.912200,01,,,,,0
10934,10934,"LEBANON CHURCH RD + #4220",,40.352092,-79.907612,01,,,,,0
10935,10935,"LEBANON CHURCH RD + #4512",,40.352293,-79.903280,01,,,,,0
10936,10936,"LEBANON CHURCH RD + PLEASANT",,40.353712,-79.901432,01,,,,,0
1094,1094,"REMINGTON DR + BALMORAL #2",,40.555130,-80.007530,01,,,,,0
10941,10941,"RICHLAND AVE + BRIDGE STEPS",,40.348041,-79.891286,01,,,,,0
10942,10942,"W 5TH AVE + RAMP #2",,40.346625,-79.880719,01,,,,,0
10946,10946,"W 5TH AVE + REBECCA",,40.350037,-79.873698,01,,,,,0
10947,10947,"MURRAY AVE + DARLINGTON",,40.437173,-79.922999,01,,,,,0
10948,10948,"MURRAY AVE + BARTLETT",,40.436133,-79.922916,01,,,,,0
1095,1095,"REMINGTON DR + WALDWICK",,40.554142,-80.007485,01,,,,,0
10950,10950,"MURRAY AVE + HOBART",,40.433853,-79.923009,01,,,,,0
10951,10951,"MURRAY AVE + PHILLIPS",,40.432522,-79.923188,01,,,,,0
10952,10952,"MURRAY AVE + FORWARD",,40.430171,-79.923505,01,,,,,0
10953,10953,"MURRAY AVE + MORROWFIELD",,40.428107,-79.925165,01,,,,,0
10954,10954,"MURRAY AVE + BURCHFIELD",,40.427500,-79.926342,01,,,,,0
10956,10956,"MURRAY AVE + WELFER",,40.425058,-79.928130,01,,,,,0
10957,10957,"MURRAY AVE + LILAC",,40.423292,-79.928685,01,,,,,0
10958,10958,"BROWNS HILL RD + IMOGENE RD",,40.415666,-79.925160,01,,,,,0
10959,19376,"BROWNS HILL RD +PARKVIEW BLVD",,40.413866,-79.922983,01,,,,,0
1096,1096,"ENNERDALE LN + DOUNREAY",,40.551537,-80.006790,01,,,,,0
10961,10961,"8TH AVE AT WEST ST FS",,40.406204,-79.911854,01,,,,,0
10962,10962,"8TH AVE + AMITY FS",,40.407135,-79.910571,01,,,,,0
10963,10963,"8TH AVE + ANN FS",,40.407894,-79.909069,01,,,,,0
10964,10964,"8TH AVE + MCCLURE",,40.408667,-79.907564,01,,,,,0
10968,10968,"8TH AVE + GRANT",,40.409218,-79.898828,01,,,,,0
10969,10969,"8TH AVE + RAVINE",,40.408717,-79.895468,01,,,,,0
1097,1097,"LAURELWOOD DR + #125",,40.551796,-80.005131,01,,,,,0
10975,10975,"KENNYWOOD BLVD + MIFFLIN",,40.401454,-79.880826,01,,,,,0
10977,10977,"KENNYWOOD BLVD + GLENN",,40.390712,-79.869320,01,,,,,0
10978,10978,"KENNYWOOD BLVD + GLENCAIRN",,40.389117,-79.867993,01,,,,,0
10979,10979,"KENNYWOOD BLVD + HOFFMAN",,40.385019,-79.863085,01,,,,,0
1098,1098,"LAURELWOOD DR + FENWICK",,40.551984,-80.002556,01,,,,,0
10981,10981,"DUQUESNE BLVD + COMMONWEALTH",,40.383000,-79.857584,01,,,,,0
10982,10982,"DUQUESNE BLVD + FAIRMONT",,40.382124,-79.856660,01,,,,,0
10983,10983,"DUQUESNE BLVD + OAKMONT",,40.380929,-79.855409,01,,,,,0
10984,10984,"DUQUESNE BLVD + OVERLAND",,40.379702,-79.854128,01,,,,,0
10988,10988,"2ND ST + GRANT",,40.373260,-79.847059,01,,,,,0
10989,10989,"2ND ST + KENNEDY FS",,40.371967,-79.846542,01,,,,,0
10991,10991,"LIBRARY PL AT DUQUESNE BLVD - DUQUESNE PNR",,40.371683,-79.843844,01,,,,,0
10992,10992,"DUQUESNE BLVD + CAMP",,40.369399,-79.842845,01,,,,,0
10994,10994,"DUQUESNE BLVD + CENTER",,40.363978,-79.842911,01,,,,,0
10995,10995,"LYSLE BLVD + 5TH",,40.352858,-79.847932,01,,,,,0
10999,10999,"W 5TH AVE + REBECCA",,40.350139,-79.873204,01,,,,,0
11,99993,"WOOD STREET STATION",,40.441827,-79.998804,FZ,,,,,0
110,98881,"NORTH SIDE STATION",,40.447859,-80.009498,FZ,,,,,0
1100,1100,"CHARTERWOOD DR + MCINTYRE",,40.551785,-80.000816,01,,,,,0
11001,11001,"W 5TH AVE + PERRY",,40.349015,-79.876911,01,,,,,0
11003,11003,"W 5TH AVE + RAMP #2",,40.346864,-79.880534,01,,,,,0
11005,11005,"RICHLAND AVE + 3RD",,40.349037,-79.891934,01,,,,,0
11009,11009,"LEBANON CHURCH RD + PGH-MCKEESPORT BLVD FS",,40.355934,-79.899839,01,,,,,0
1101,1101,"MCINTYRE DR + THOMPSON RUN",,40.552403,-79.998573,01,,,,,0
11010,11010,"LEBANON CHURCH RD + PLEASANT",,40.353692,-79.901525,01,,,,,0
11011,11011,"LEBANON CHURCH RD + #4513",,40.352298,-79.903528,01,,,,,0
11013,11013,"LEBANON CHURCH RD + WILSON",,40.352370,-79.906947,01,,,,,0
11015,11015,"LEBANON CHURCH RD + POLK",,40.354259,-79.912274,01,,,,,0
11016,11016,"LEBANON CHURCH RD + BUTTERMILK HOLLOW",,40.354296,-79.913500,01,,,,,0
11017,11017,"LEBANON CHURCH RD + VINDALE RD FS",,40.353855,-79.915251,01,,,,,0
11021,11021,"OLD ELIZABETH RD + BLUEMONT DR",,40.347405,-79.936855,01,,,,,0
11025,11025,"MCCLURE ST + 9TH",,40.408169,-79.906967,01,,,,,0
11026,11026,"9TH AVE + ANN",,40.407324,-79.908436,01,,,,,0
11027,11027,"9TH AVE + AMITY",,40.406542,-79.909984,01,,,,,0
11028,20949,"AMITY ST + 10TH",,40.405800,-79.909576,01,,,,,0
1103,1103,"AMITY DR + CARRIAGE",,40.549164,-79.996613,01,,,,,0
11031,11031,"WEST ST + 15TH",,40.402010,-79.906926,01,,,,,0
11032,11032,"WEST ST + 17TH",,40.400719,-79.905710,01,,,,,0
11033,11033,"WEST ST + 18TH",,40.400050,-79.905137,01,,,,,0
11034,11034,"WEST ST + MUNHALL BORO BLDG",,40.399179,-79.904375,01,,,,,0
11035,11035,"WEST ST + 21ST",,40.398052,-79.903405,01,,,,,0
11036,11036,"22ND AVE + MAIN",,40.397720,-79.901853,01,,,,,0
11038,11038,"MAIN ST + HOMESTEAD-DUQUESNE",,40.395499,-79.899682,01,,,,,0
11039,11039,"MAIN ST + EDNA",,40.393230,-79.900278,01,,,,,0
1104,1104,"AMITY DR + LINGAY",,40.547661,-79.994705,01,,,,,0
11040,11040,"MAIN ST + E JAMES",,40.391660,-79.900490,01,,,,,0
11041,11041,"MAIN ST + WOODLAWN",,40.390864,-79.900698,01,,,,,0
11042,11042,"MAIN ST + W OLIVER FS",,40.389844,-79.900966,01,,,,,0
11043,11043,"MAIN ST + MARION",,40.387988,-79.901938,01,,,,,0
11044,11044,"MAIN ST + MILLER",,40.387359,-79.902317,01,,,,,0
11045,11045,"MAIN ST + VIRGINIA",,40.385967,-79.903013,01,,,,,0
11046,11046,"MAIN ST + EMERSON",,40.385283,-79.903382,01,,,,,0
11047,11047,"MAIN ST + BOTSFORD",,40.384692,-79.903685,01,,,,,0
11048,11048,"MAIN ST + GRACE",,40.383192,-79.904454,01,,,,,0
11049,11049,"MAIN ST + CAMBRIA",,40.381678,-79.906013,01,,,,,0
1105,1105,"AMITY DR + #213",,40.545715,-79.994515,01,,,,,0
11050,11050,"MAIN ST + W LEHIGH",,40.380903,-79.906563,01,,,,,0
11051,11051,"MAIN ST + LESLIE",,40.379611,-79.907307,01,,,,,0
11052,11052,"MAIN ST + N LEHIGH",,40.378549,-79.908122,01,,,,,0
11053,11053,"MAIN ST + WEST RUN (BRIERLY LANE)",,40.377145,-79.909195,01,,,,,0
11054,11054,"INTERBORO AVE + LINDBERG FS",,40.375433,-79.910523,01,,,,,0
11055,11055,"INTERBORO AVE + PLAPORT",,40.373828,-79.911892,01,,,,,0
11056,11056,"INTERBORO AVE + LEASIDE",,40.372220,-79.912366,01,,,,,0
11057,11057,"INTERBORO AVE + MIFFLIN",,40.369951,-79.912954,01,,,,,0
1106,1106,"AMITY DR + BLAZE",,40.544907,-79.993431,01,,,,,0
11065,11065,"HAZELWOOD AVE + GREENFIELD AVE",,40.419731,-79.928993,01,,,,,0
11068,11068,"GREENFIELD AVE + DELEVAN",,40.423521,-79.931631,01,,,,,0
1107,1107,"AMITY DR + SUTTER",,40.543476,-79.992554,01,,,,,0
11071,11071,"GREENFIELD AVE + GRAPHIC",,40.424362,-79.935158,01,,,,,0
11072,11072,"GREENFIELD AVE + MCCASLIN",,40.424297,-79.936081,01,,,,,0
11073,11073,"GREENFIELD AVE + CITY STEPS",,40.424559,-79.937667,01,,,,,0
11075,11075,"HALKET ST + LOUISA ST",,40.437051,-79.959414,01,,,,,0
11076,11076,"HALKET ST + FORBES",,40.438406,-79.961113,01,,,,,0
11077,11077,"MURRAY AVE + FORBES",,40.438273,-79.923017,01,,,,,0
11078,11078,"SHADY AVE + AYLESBORO",,40.440182,-79.919523,01,,,,,0
11079,11079,"SHADY AVE + NORTHUMBERLAND",,40.441695,-79.919804,01,,,,,0
1108,1108,"SUTTER DR + THOMPSON",,40.543377,-79.993492,01,,,,,0
11080,11080,"SHADY AVE + SOLWAY",,40.442656,-79.920096,01,,,,,0
11081,11081,"SHADY AVE + WILKINS",,40.443756,-79.920424,01,,,,,0
11082,11082,"SHADY AVE + HASTINGS",,40.445570,-79.920974,01,,,,,0
11083,11083,"SHADY AVE + BRAEBURN",,40.448456,-79.921234,01,,,,,0
11084,11084,"SHADY AVE + HIGHMONT",,40.449823,-79.920672,01,,,,,0
11088,11088,"NEGLEY AVE + E BUSWAY STEPS",,40.456074,-79.933304,01,,,,,0
1109,1109,"THOMPSON RUN RD + WHITE OAK",,40.541959,-79.992438,01,,,,,0
11092,11092,"S. BEATTY ST + PENN NS",,40.461603,-79.927100,01,,,,,0
11097,CD11097,"SHADY AVE + 5TH NS",,40.453129,-79.920891,01,,,,,0
11098,11098,"SHADY AVE + HIGHMONT",,40.449905,-79.920763,01,,,,,0
11099,11099,"SHADY AVE + DEVERAUX",,40.448005,-79.921531,01,,,,,0
111,98880,"GATEWAY STATION",,40.441420,-80.003978,FZ,,,,,0
1110,1110,"THOMPSON RUN RD + SANGREE",,40.538902,-79.990189,01,,,,,0
11100,11100,"SHADY AVE + HASTINGS",,40.445796,-79.921162,01,,,,,0
11101,11101,"SHADY AVE + WILKINS",,40.444057,-79.920635,01,,,,,0
11102,11102,"WHITAKER WAY + HIGHWOOD",,40.405958,-79.892995,01,,,,,0
11103,18403,"WHITAKER WAY + LARKSPUR ST",,40.403488,-79.890361,01,,,,,0
11105,11105,"WHITAKER WAY + SCHWAB",,40.401897,-79.888633,01,,,,,0
11106,11106,"WHITAKER WAY + OAK",,40.400207,-79.886933,01,,,,,0
11107,11107,"WHITAKER WAY + GRANT",,40.399522,-79.886239,01,,,,,0
11108,11108,"WHITAKER WAY + MIFFLIN",,40.398767,-79.885486,01,,,,,0
11109,11109,"MIDWAY DR + WHITAKER FS",,40.398054,-79.884526,01,,,,,0
1111,1111,"THOMPSON RUN RD + CHERRINGTON",,40.536461,-79.990349,01,,,,,0
11110,11110,"MIDWAY DR + #18C",,40.397286,-79.882713,01,,,,,0
11111,11111,"MIDWAY DR + #24",,40.397647,-79.880800,01,,,,,0
11114,11114,"MIDWAY DR + #4A",,40.397606,-79.883239,01,,,,,0
11115,11115,"MIDWAY DR + #1F",,40.398099,-79.884419,01,,,,,0
11116,11116,"WHITAKER ST + MIFFLIN F S",,40.398801,-79.885425,01,,,,,0
11117,11117,"WHITAKER ST + GRANT",,40.399459,-79.886088,01,,,,,0
11118,11118,"WHITAKER ST + OAK ST",,40.400290,-79.886927,01,,,,,0
11119,11119,"WHITAKER WAY + SCHWAB",,40.401642,-79.888273,01,,,,,0
11121,11121,"WHITAKER WAY + LARKSPUR",,40.403261,-79.890045,01,,,,,0
11123,11123,"WHITAKER WAY + HIGHWOOD",,40.405989,-79.892801,01,,,,,0
11126,11126,"LONG RUN RD + COOLSPRINGS",,40.332568,-79.813734,01,,,,,0
11127,11127,"LONG RUN RD + SUNSET",,40.334998,-79.811413,01,,,,,0
11128,11128,"JACKS RUN RD + OAK PARK MALL",,40.337842,-79.807186,01,,,,,0
11129,11129,"JACKS RUN RD + #3030",,40.344622,-79.796654,01,,,,,0
1113,1113,"THOMPSON RUN RD + HODIL",,40.534863,-79.990440,01,,,,,0
11130,11130,"JACKS RUN RD + MCKEESPORT SPORTSMENS ASSOC",,40.358595,-79.786057,01,,,,,0
11134,11134,"LINCOLN HWY + DIX",,40.369168,-79.782561,01,,,,,0
11135,11135,"LINCOLN HWY + LEUHM",,40.370471,-79.786099,01,,,,,0
11137,11137,"LINCOLN HWY + DENNING",,40.371424,-79.788965,01,,,,,0
11138,11138,"LINCOLN HWY + MCKEE",,40.373025,-79.792726,01,,,,,0
11139,11139,"LINCOLN OPP BROAD ST",,40.375449,-79.796521,01,,,,,0
1114,1114,"THOMPSON RUN RD + SUNSET",,40.532173,-79.990227,01,,,,,0
11140,11140,"LINCOLN HWY + JACOB",,40.376757,-79.799597,01,,,,,0
11141,11141,"LINCOLN HWY + ISAAC FS",,40.377544,-79.801790,01,,,,,0
11142,11142,"LINCOLN HWY + TAYLOR FS",,40.378212,-79.803730,01,,,,,0
11143,11143,"LINCOLN HWY + 3RD",,40.379390,-79.806872,01,,,,,0
11145,11145,"LINCOLN HWY + 5TH",,40.381048,-79.811431,01,,,,,0
11147,11147,"LINCOLN HWY + SANTOS FS",,40.381355,-79.813560,01,,,,,0
11152,11152,"LINCOLN HWY + CLYDE",,40.388716,-79.830156,01,,,,,0
11153,11153,"GRANDVIEW AVE + CENTER",,40.395612,-79.839121,01,,,,,0
11154,11154,"LINCOLN HWY + CLYDE",,40.388973,-79.830775,01,,,,,0
1116,1116,"THOMPSON RUN RD + SEIBERT",,40.529193,-79.990430,01,,,,,0
11161,11161,"LINCOLN HWY + GRAHAM",,40.380126,-79.809183,01,,,,,0
11163,11163,"LINCOLN HWY + 3RD",,40.379383,-79.807175,01,,,,,0
11165,11165,"LINCOLN HWY + ISSAC",,40.377604,-79.802254,01,,,,,0
11166,11166,"LINCOLN HWY + JACOB",,40.376807,-79.800051,01,,,,,0
11167,11167,"LINCOLN HWY AT BROAD ST",,40.375572,-79.796981,01,,,,,0
11168,11168,"LINCOLN HWY + MCKEE",,40.373066,-79.793103,01,,,,,0
11169,11169,"LINCOLN HWY + DENNING",,40.371396,-79.789174,01,,,,,0
11171,11171,"LINCOLN HWY + LEUHM",,40.370409,-79.786434,01,,,,,0
11172,11172,"LINCOLN HWY + DIX",,40.369065,-79.782581,01,,,,,0
11175,11175,"JACKS RUN RD + BIROS TRAILER PARK",,40.360209,-79.785726,01,,,,,0
11177,11177,"JACKS RUN RD + #3001",,40.344222,-79.798303,01,,,,,0
11178,11178,"JACKS RUN RD + RAINBOW SHOPPING CENTER ENTRANCE",,40.338172,-79.806766,01,,,,,0
11179,11179,"LINCOLN HWY + CENTER",,40.395584,-79.838610,01,,,,,0
1118,1118,"THOMPSON RUN RD + SUNNYHILL",,40.524117,-79.988876,01,,,,,0
11180,11180,"LINCOLN HWY + CENTER",,40.395784,-79.838699,01,,,,,0
11186,11186,"LIBERTY AVE + FIFTH AVE",,40.441797,-80.002514,01,,,,,0
1119,1119,"THOMPSON RUN RD + MILLER",,40.522336,-79.990991,01,,,,,0
11194,11194,"THIRD AT RT 51 OVERPASS - ELIZABETH PARK AND RIDE",,40.273078,-79.885653,01,,,,,0
11196,11196,"WORTHINGTON AVE + 8TH",,40.292465,-79.890175,01,,,,,0
11197,11197,"WORTHINGTON AVE + 9TH",,40.292190,-79.891505,01,,,,,0
11198,11198,"WORTHINGTON AVE + 10TH",,40.292042,-79.893567,01,,,,,0
11199,11199,"WORTHINGTON AVE + 11TH FS",,40.292360,-79.895955,01,,,,,0
112,98879,"PALM GARDEN",,40.416466,-80.011827,01,,,,,0
1120,1120,"THOMPSON RUN RD + #218",,40.519872,-79.992013,01,,,,,0
11200,11200,"WORTHINGTON AVE + 12TH",,40.292732,-79.897195,01,,,,,0
11202,11202,"WORTHINGTON AVE + 13TH",,40.293673,-79.899525,01,,,,,0
11204,11204,"WORTHINGTON AVE + PETERSON",,40.293857,-79.903216,01,,,,,0
11205,11205,"WORTHINGTON AVE + ONEIDA",,40.294604,-79.905487,01,,,,,0
11206,11206,"WORTHINGTON AVE + HWY RT 51",,40.291027,-79.913624,01,,,,,0
11207,11207,"HWY RT 51 + PETERS CREEK",,40.292341,-79.915368,01,,,,,0
11208,11208,"HWY RT 51 + OLD CLAIRTON RD",,40.294458,-79.917807,01,,,,,0
1121,1121,"THOMPSON RUN RD + WOODBRIDGE APTS",,40.518541,-79.992734,01,,,,,0
11211,11211,"HWY RT 51 + WRAY LARGE (OPP LARGE VFD)",,40.300406,-79.922522,01,,,,,0
11212,11212,"HWY RT 51 + BLUE FLAME",,40.304798,-79.933545,01,,,,,0
11213,11213,"HWY RT 51 + ELLIOTT",,40.309895,-79.937161,01,,,,,0
11214,11214,"HWY RT 51 + COAL VALLEY",,40.313092,-79.938532,01,,,,,0
11216,11216,"E CARSON ST + STATION SQUARE STATION",,40.431895,-80.003312,01,,,,,0
1122,1122,"THOMPSON RUN RD + RADCLIFFE",,40.517302,-79.993752,01,,,,,0
1123,1123,"THOMPSON RUN RD + EVERGREEN",,40.511454,-79.993700,01,,,,,0
1125,1125,"SEVENTH AVE + SMITHFIELD ST",,40.442791,-79.996620,01,,,,,0
11254,11254,"HWY RT 51 + LEWIS RUN",,40.321184,-79.942318,01,,,,,0
11257,11257,"HWY RT 51 + BLUE FLAME",,40.305157,-79.934197,01,,,,,0
11258,11258,"HWY RT 51 + JEFFERSON VETERINARY CLINIC",,40.301631,-79.930273,01,,,,,0
11259,11259,"HWY RT 51 + LARGE VFD",,40.300589,-79.923550,01,,,,,0
11261,11261,"HWY RT 51 + DICK CORPORATION DR",,40.292375,-79.915705,01,,,,,0
11262,11262,"WORTHINGTON AVE + HWY RT 51",,40.290720,-79.912907,01,,,,,0
11263,11263,"WORTHINGTON AVE + ONEIDA",,40.294574,-79.905718,01,,,,,0
11264,11264,"WORTHINGTON AVE + PETERSON",,40.293844,-79.903305,01,,,,,0
11266,11266,"WORTHINGTON AVE + 13TH",,40.293595,-79.899508,01,,,,,0
11267,11267,"WORTHINGTON AVE + 12TH",,40.292915,-79.897871,01,,,,,0
11268,11268,"WORTHINGTON AVE + 11TH",,40.292276,-79.895864,01,,,,,0
11270,11270,"WORTHINGTON AVE + 9TH",,40.292100,-79.891598,01,,,,,0
11274,11274,"HWY RT 51 + MONROE MUFFLER",,40.331322,-79.945749,01,,,,,0
1129,1129,"HEMLOCK DR + #4424",,40.578812,-79.980765,01,,,,,0
113,98878,"PALM GARDEN",,40.416126,-80.011822,01,,,,,0
1131,1131,"HEMLOCK DR + SAMPLE",,40.576218,-79.978973,01,,,,,0
11324,11324,"SOLTIS DR + DESIDERIO",,40.286625,-79.896080,01,,,,,0
1135,1135,"EVERGREEN RD + FRANKLIN",,40.490466,-79.971754,01,,,,,0
1136,1136,"EVERGREEN RD + EMMA",,40.489246,-79.972206,01,,,,,0
1137,1137,"EVERGREEN RD + FREDERICK",,40.488068,-79.972687,01,,,,,0
11373,11373,"SPENCER AVE + BEAU",,40.387624,-79.976412,01,,,,,0
1138,1138,"EVERGREEN RD + JOHN",,40.487221,-79.972710,01,,,,,0
11404,18487,"SECOND AVE +S 10TH ST BRIDGE FS",,40.434554,-79.990186,01,,,,,0
11425,11425,"CHURCHVIEW AVE + WILLETT",,40.385744,-79.971319,01,,,,,0
11449,18489,"SECOND AVE +S 10TH ST BRIDGE",,40.434467,-79.990082,01,,,,,0
1149,1149,"40TH ST + DAVIDSON",,40.467598,-79.960979,01,,,,,0
1150,1150,"PENN AVE + MAIN ST",,40.465573,-79.955463,01,,,,,0
1151,1151,"MAIN ST + HOWLEY",,40.464340,-79.953484,01,,,,,0
1152,1152,"LIBERTY AVE + ELLA",,40.463154,-79.951974,01,,,,,0
1153,1153,"LIBERTY AVE + PEARL",,40.462109,-79.949989,01,,,,,0
1154,1154,"LIBERTY AVE + EDMOND",,40.461119,-79.948164,01,,,,,0
11548,11548,"CHURCHVIEW AVE + SANKEY AVE",,40.385387,-79.976336,01,,,,,0
1155,1155,"LIBERTY AVE + MILLVALE AVE ( WEST PENN HOSP)",,40.460035,-79.946124,01,,,,,0
1156,1156,"LIBERTY AVE + WINEBIDDLE",,40.458904,-79.944020,01,,,,,0
1158,1158,"LIBERTY AVE + PACIFIC",,40.457293,-79.941013,01,,,,,0
11583,11583,"ST JOSEPH ST + COMO (STEPS)",,40.413538,-79.979195,01,,,,,0
11588,11588,"ST JOSEPH ST + HAYS",,40.413325,-79.987484,01,,,,,0
1159,1159,"LIBERTY AVE + BAUM",,40.456711,-79.939926,01,,,,,0
11615,11615,"MOUNTAIN ST + FISHER",,40.411581,-79.977276,01,,,,,0
11622,11622,"INTERBORO AVE + LEASIDE #1 (MIFFLIN)",,40.370143,-79.912825,01,,,,,0
11623,11623,"INTERBORO AVE + LEASIDE #2",,40.371988,-79.912347,01,,,,,0
11624,11624,"INTERBORO AVE + PLAPORT",,40.373761,-79.911865,01,,,,,0
11625,11625,"INTERBORO AVE + LINDBERG",,40.375316,-79.910482,01,,,,,0
11626,11626,"INTERBORO AVE + BRIERLY",,40.376779,-79.909381,01,,,,,0
11627,11627,"MAIN ST + ELIZABETH",,40.378392,-79.908152,01,,,,,0
11628,11628,"MAIN ST + LESLIE",,40.379465,-79.907338,01,,,,,0
11629,11629,"MAIN ST + FULTON",,40.380721,-79.906578,01,,,,,0
11630,11630,"MAIN ST + #4117",,40.381740,-79.905549,01,,,,,0
11631,11631,"MAIN ST + CAROLINE",,40.382926,-79.904513,01,,,,,0
11632,11632,"MAIN ST + BOTSFORD",,40.384388,-79.903740,01,,,,,0
11633,11633,"MAIN ST + VIRGINIA",,40.385783,-79.903038,01,,,,,0
11634,11634,"MAIN ST + MILLER",,40.387162,-79.902309,01,,,,,0
11635,11635,"MAIN ST + MARION",,40.388131,-79.901769,01,,,,,0
11638,11638,"MAIN ST + E JAMES",,40.391523,-79.900450,01,,,,,0
11639,11639,"MAIN ST + LEA",,40.392385,-79.900231,01,,,,,0
11640,11640,"MAIN ST + EDNA",,40.393238,-79.900197,01,,,,,0
11641,11641,"MAIN ST + HOMESTEAD DUQUESNE",,40.395423,-79.899575,01,,,,,0
11644,11644,"WEST ST + 21ST",,40.397946,-79.903184,01,,,,,0
11645,11645,"WEST ST + MUNHALL BORO BLDG",,40.399210,-79.904276,01,,,,,0
11646,11646,"WEST ST + 18TH",,40.400013,-79.904970,01,,,,,0
11648,11648,"WEST ST + 15TH",,40.401932,-79.906677,01,,,,,0
11649,11649,"WEST ST + 13TH",,40.402992,-79.908101,01,,,,,0
1165,1165,"FIFTH AVE + WILKINS",,40.447892,-79.936896,01,,,,,0
11651,11651,"AMITY ST + 10TH AVE",,40.405702,-79.909335,01,,,,,0
11652,11652,"10TH AVE + ANN",,40.406402,-79.908138,01,,,,,0
11653,11653,"ANN ST + 8TH",,40.407779,-79.909144,01,,,,,0
11654,11654,"BEECHWOOD BLVD + FEDERAL HILL",,40.420860,-79.927419,01,,,,,0
11656,11656,"BEECHWOOD BLVD + LILAC",,40.422914,-79.927556,01,,,,,0
11659,11659,"BEECHWOOD BLVD + PARKWAY ENTRANCE",,40.428465,-79.931040,01,,,,,0
1166,1166,"FIFTH AVE + AMBERSON",,40.447758,-79.938742,01,,,,,0
11665,11665,"BEECHWOOD BLVD + HAZELWOOD",,40.419752,-79.927280,01,,,,,0
11667,11667,"WEST ST + 13TH",,40.403157,-79.908461,01,,,,,0
11668,11668,"MAIN ST + MARHAM",,40.392564,-79.900289,01,,,,,0
11669,11669,"FOURTH AVE + SMITHFIELD",,40.438785,-79.999750,01,,,,,0
1167,1167,"FIFTH AVE + MOREWOOD AVE",,40.447476,-79.942284,01,,,,,0
11677,11677,"GRANT AVE + 4TH FS",,40.372631,-79.849411,01,,,,,0
11679,11679,"GRANT AVE + 6TH",,40.372266,-79.850983,01,,,,,0
11684,11684,"KENNEDY AVE + WILMOT",,40.368893,-79.854475,01,,,,,0
11685,11685,"KENNEDY AVE + PETER",,40.367585,-79.855851,01,,,,,0
11686,11686,"KENNEDY AVE + MIFFLIN",,40.366181,-79.857698,01,,,,,0
11687,11687,"TEXAS AVE + MELLON",,40.365741,-79.858977,01,,,,,0
11688,11688,"MELLON ST + MAINE",,40.364842,-79.859229,01,,,,,0
11689,11689,"MELLON ST + VERMONT",,40.363952,-79.859099,01,,,,,0
1169,1169,"FIFTH AVE + NEVILLE ST",,40.447121,-79.947174,01,,,,,0
11691,11691,"MELLON ST + PENNSYLVANIA",,40.362187,-79.858827,01,,,,,0
11692,11692,"PENNSYLVANIA AVE + TAFT",,40.362125,-79.861430,01,,,,,0
11694,11694,"PENNSYLVANIA AVE + VERMONT",,40.362111,-79.866598,01,,,,,0
11695,11695,"PENNSYLVANIA AVE + CONLIN",,40.361812,-79.867918,01,,,,,0
11696,11696,"CONLIN ST + CAROLINA",,40.362225,-79.869366,01,,,,,0
1170,1170,"FIFTH AVE + CRAIG",,40.447054,-79.948816,01,,,,,0
11703,11703,"HOMEVILLE RD OPP CASTLE DR",,40.376823,-79.875446,01,,,,,0
11705,11705,"HOMEVILLE RD OPP CASTLE DR (USPS)",,40.381288,-79.877237,01,,,,,0
11706,11706,"HOMEVILLE RD + COMMONWEALTH",,40.382700,-79.877766,01,,,,,0
11707,11707,"GREENSPRINGS AVE + MUNICIPAL BUILDING",,40.384098,-79.878430,01,,,,,0
11709,11709,"GREENSPRINGS AVE + ROBERTA",,40.385798,-79.880054,01,,,,,0
1171,1171,"FIFTH AVE + BELLEFIELD",,40.446708,-79.951709,01,,,,,0
11710,11710,"GREENSPRINGS AVE + HAZEL",,40.387095,-79.880609,01,,,,,0
11713,11713,"GREENSPRINGS AVE + CHURCH",,40.390627,-79.882385,01,,,,,0
11714,11714,"GREENSPRINGS AVE + SPRING",,40.391476,-79.883479,01,,,,,0
11715,11715,"GREENSPRINGS AVE + BOROUGH PARKING LOT",,40.391844,-79.884638,01,,,,,0
11716,11716,"GREENSPRINGS AVE + CYPRESS",,40.393009,-79.886031,01,,,,,0
1173,1173,"BELLEFIELD AVE + FIFTH AVE",,40.446349,-79.951784,01,,,,,0
1174,1174,"FIFTH AVE + CRAIG ST NS",,40.446805,-79.949606,01,,,,,0
11744,11744,"GREENSPRINGS AVE + DUQUESNE",,40.391860,-79.884732,01,,,,,0
11746,11746,"GREENSPRINGS AVE + CHURCH FS",,40.390715,-79.882556,01,,,,,0
11749,11749,"GREENSPRINGS AVE + HAZEL",,40.387215,-79.880724,01,,,,,0
1175,1175,"FIFTH AVE + NEVILLE ST",,40.447024,-79.947427,01,,,,,0
11750,11750,"GREENSPRINGS AVE + ROBERTA",,40.386039,-79.880322,01,,,,,0
11752,11752,"GREENSPRINGS AVE + EASTMAN",,40.383543,-79.878252,01,,,,,0
11754,11754,"HOMEVILLE RD + CASTLE DR (OPP USPS)",,40.381464,-79.877411,01,,,,,0
11756,11756,"HOMEVILLE RD + CASTLE DR",,40.376822,-79.875540,01,,,,,0
11757,11757,"HOMEVILLE RD + MUNICIPAL",,40.373795,-79.873863,01,,,,,0
1176,1176,"FIFTH AVE + CLYDE ST",,40.447201,-79.944955,01,,,,,0
11762,11762,"WORTON BLVD + CONLIN",,40.362866,-79.870699,01,,,,,0
11763,11763,"CONLIN ST + CAROLINA",,40.362188,-79.869421,01,,,,,0
11764,11764,"CONLIN ST + PENNSYLVANIA",,40.361741,-79.868114,01,,,,,0
11765,11765,"PENNSYLVANIA AVE + VERMONT",,40.362059,-79.866962,01,,,,,0
11767,11767,"PENNSYLVANIA AVE + TAFT",,40.362072,-79.861667,01,,,,,0
11768,11768,"PENNSYLVANIA AVE + MELLON",,40.362070,-79.858867,01,,,,,0
11769,11769,"MELLON ST + HIGHLAND",,40.363036,-79.858884,01,,,,,0
1177,1177,"FIFTH AVE + MOREWOOD AVE",,40.447365,-79.942604,01,,,,,0
11770,11770,"MELLON ST + VERMONT",,40.363929,-79.859021,01,,,,,0
11771,11771,"MELLON ST + MAINE",,40.364821,-79.859149,01,,,,,0
11772,11772,"MELLON ST + TEXAS",,40.365537,-79.859248,01,,,,,0
11774,11774,"KENNEDY AVE + DELL",,40.366429,-79.857264,01,,,,,0
11775,11775,"KENNEDY AVE + PETER",,40.367463,-79.855902,01,,,,,0
11776,11776,"KENNEDY AVE + WILMOT",,40.368742,-79.854521,01,,,,,0
11777,11777,"KENNEDY AVE + CATHERINE",,40.369709,-79.853575,01,,,,,0
1178,1178,"FIFTH AVE + AMBERSON",,40.447642,-79.938893,01,,,,,0
11780,11780,"GRANT AVE + 6TH",,40.372133,-79.851168,01,,,,,0
11782,11782,"GRANT AVE + 4TH",,40.372609,-79.849171,01,,,,,0
11783,11783,"GRANT AVE + 2ND",,40.373085,-79.847145,01,,,,,0
1179,1179,"FIFTH AVE + WILKINS FS",,40.447790,-79.936871,01,,,,,0
11791,11791,"KENNYWOOD MALL FIRE LANE + HOLLYWOOD VIDEO",,40.383592,-79.867459,01,,,,,0
1187,1187,"LIBERTY AVE + EVALINE",,40.457999,-79.942071,01,,,,,0
1188,1188,"LIBERTY AVE + WINEBIDDLE",,40.458814,-79.943591,01,,,,,0
1189,1189,"LIBERTY AVE + GROSS",,40.459412,-79.944722,01,,,,,0
1191,1191,"LIBERTY AVE + MATHILDA (WEST PENN HOSP)",,40.460582,-79.946912,01,,,,,0
11911,11911,"EASTMAN ST + GREENSPRINGS F S",,40.383589,-79.877821,01,,,,,0
11915,11915,"ELIZA ST + CORBIN F",,40.387484,-79.874856,01,,,,,0
11916,11916,"ELIZA ST + GLENCAIRN",,40.389058,-79.875401,01,,,,,0
1192,1192,"LIBERTY AVE + EDMOND",,40.461145,-79.947957,01,,,,,0
11925,11925,"MAPLE ST + KENNETT",,40.395907,-79.882019,01,,,,,0
11926,11926,"WHITAKER ST + OAK",,40.396203,-79.883629,01,,,,,0
11927,11927,"WHITAKER ST + ELM F S",,40.397110,-79.884246,01,,,,,0
1193,1193,"LIBERTY AVE + PEARL",,40.462088,-79.949752,01,,,,,0
11931,11931,"ELIZA ST + FRANK",,40.391829,-79.877208,01,,,,,0
11932,11932,"ELIZA ST + DIVISION ST",,40.394506,-79.879442,01,,,,,0
1194,1194,"LIBERTY AVE + ELLA",,40.463127,-79.951650,01,,,,,0
11943,11943,"MIFFLIN ST + GEORGE ST",,40.397693,-79.887885,01,,,,,0
11945,11945,"MIFFLIN ST + WHITAKER ST",,40.398660,-79.885482,01,,,,,0
11947,11947,"WHITAKER ST + OAK",,40.396323,-79.883797,01,,,,,0
11949,11949,"MAPLE ST + ELIZA",,40.396142,-79.881267,01,,,,,0
11958,11958,"ELIZA ST + CORBIN",,40.387478,-79.874924,01,,,,,0
11962,11962,"EASTMAN ST + GREENSPRINGS",,40.383622,-79.877927,01,,,,,0
11966,11966,"ELIZA ST + FRANK (#3932)",,40.391949,-79.877396,01,,,,,0
11967,11967,"ELIZA ST + GLENCAIRN FS",,40.388710,-79.875420,01,,,,,0
11968,11968,"5TH ST + KENNEDY",,40.371231,-79.849617,01,,,,,0
11969,11969,"5TH ST + VIOLA",,40.369338,-79.848822,01,,,,,0
1197,1197,"PENN AVE + 40TH ST",,40.465262,-79.957734,01,,,,,0
11970,11970,"5TH ST + PRISCILLA",,40.368458,-79.848412,01,,,,,0
11971,11971,"5TH ST + COCHRAN",,40.366692,-79.847954,01,,,,,0
11972,11972,"5TH ST + CRAWFORD",,40.364745,-79.847056,01,,,,,0
11973,11973,"CRAWFORD ST + CATHERINE",,40.364334,-79.847772,01,,,,,0
11974,11974,"CRAWFORD ST + PIRL",,40.364036,-79.848616,01,,,,,0
11975,11975,"CRAWFORD ST + STATE",,40.363670,-79.849599,01,,,,,0
11976,11976,"CRAWFORD ST + WOOL",,40.363367,-79.850426,01,,,,,0
11977,11977,"CRAWFORD ST + MONTEREY",,40.362927,-79.852097,01,,,,,0
11978,11978,"CRAWFORD ST + MIFFLIN",,40.362275,-79.854811,01,,,,,0
11979,11979,"PENNSYLVANIA AVE + CARNEGIE",,40.362212,-79.856098,01,,,,,0
11980,11980,"PENNSYLVANIA AVE + MELLON",,40.362120,-79.858684,01,,,,,0
1199,1199,"40TH ST + BUTLER",,40.468544,-79.962105,01,,,,,0
12,99992,"WOOD STREET STATION",,40.442149,-79.999438,FZ,,,,,0
12006,12006,"PENNSYLVANIA AVE + CARNEGIE",,40.362137,-79.856415,01,,,,,0
12007,12007,"PENNSYLVANIA AVE + MIFFLIN",,40.362182,-79.854977,01,,,,,0
12008,12008,"CRAWFORD ST + MONTEREY",,40.362826,-79.852250,01,,,,,0
12009,12009,"CRAWFORD ST + WOOL",,40.363222,-79.850657,01,,,,,0
12010,12010,"CRAWFORD ST + STATE",,40.363562,-79.849713,01,,,,,0
12011,12011,"CRAWFORD ST + PIRL",,40.363899,-79.848798,01,,,,,0
12012,12012,"CRAWFORD ST + CATHERINE",,40.364205,-79.847947,01,,,,,0
12013,12013,"CRAWFORD ST + 5TH",,40.364567,-79.846973,01,,,,,0
12014,12014,"5TH ST + COCHRAN",,40.366526,-79.847926,01,,,,,0
12015,12015,"5TH ST + PRISCILLA",,40.368314,-79.848306,01,,,,,0
12017,12017,"4TH ST + VIOLA",,40.369441,-79.847638,01,,,,,0
12018,12018,"4TH ST + KENNEDY",,40.371318,-79.848404,01,,,,,0
12019,12019,"4TH ST + GRANT",,40.372602,-79.848949,01,,,,,0
12025,12025,"LEBANON CHURCH RD + CURRY HOLLOW",,40.350625,-79.924508,01,,,,,0
12026,12026,"BUTTERMILK HOLLOW RD + #5055",,40.354732,-79.913493,01,,,,,0
12028,12028,"BUTTERMILK HOLLOW RD + WALNUT",,40.356161,-79.911645,01,,,,,0
12030,12030,"BUTTERMILK HOLLOW RD + PGH-MCKPT BLVD",,40.358057,-79.909194,01,,,,,0
12031,12031,"BUTTERMILK HOLLOW RD + THOMPSON RUN FS",,40.360886,-79.907625,01,,,,,0
12032,12032,"BUTTERMILK HOLLOW RD + NAUGLE",,40.364657,-79.908165,01,,,,,0
12033,12033,"MIFFLIN RD + MOHRBACH FS",,40.366918,-79.909867,01,,,,,0
12034,12034,"MIFFLIN RD + #5419",,40.368199,-79.910351,01,,,,,0
12038,12038,"LEBANON CHURCH RD + CAMP HOLLOW",,40.350181,-79.927704,01,,,,,0
12039,12039,"MIFFLIN RD + MCBRIDE",,40.369333,-79.910727,01,,,,,0
12040,12040,"MIFFLIN RD + #5419",,40.368151,-79.910455,01,,,,,0
12041,12041,"MIFFLIN RD + MOHRBACH FS",,40.366629,-79.909768,01,,,,,0
12042,12042,"MIFFLIN RD + NAUGLE",,40.364834,-79.908379,01,,,,,0
12043,12043,"BUTTERMILK HOLLOW RD + THOMPSON RUN",,40.360766,-79.907730,01,,,,,0
12044,12044,"BUTTERMILK HOLLOW RD + PGH-MCKPT BLVD",,40.358799,-79.908537,01,,,,,0
12046,12046,"BUTTERMILK HOLLOW RD + WALNUT",,40.356331,-79.911554,01,,,,,0
12047,12047,"BUTTERMILK HOLLOW RD + REMNANT WORLD",,40.355283,-79.912911,01,,,,,0
12050,12050,"HWY RT 885 + COAL VALLEY",,40.322754,-79.926491,01,,,,,0
12053,12053,"LEBANON CHURCH RD + COUNTY AIRPORT ENT",,40.350432,-79.926750,01,,,,,0
12055,12055,"HWY RT 885 + LEBANON CHURCH FS",,40.347985,-79.939228,01,,,,,0
12059,12059,"HWY ROUTE 885 + LEWIS RUN ROAD NS",,40.333464,-79.934872,01,,,,,0
12062,12062,"IMOGENE RD + DESDEMONA",,40.411896,-79.922847,01,,,,,0
12067,12067,"JOHNSTON AVE + #857",,40.406218,-79.930971,01,,,,,0
12068,12068,"JOHNSTON AVE + ROSELLE FS",,40.406200,-79.932842,01,,,,,0
12069,12069,"JOHNSTON AVE + #657",,40.405358,-79.934098,01,,,,,0
12070,12070,"JOHNSTON AVE + #635",,40.404871,-79.935356,01,,,,,0
12071,12071,"JOHNSTON AVE + MANSION",,40.405517,-79.937283,01,,,,,0
12072,12072,"JOHNSTON AVE + GLENWOOD",,40.406474,-79.939644,01,,,,,0
12073,12073,"JOHNSTON AVE + GERTRUDE",,40.406575,-79.941279,01,,,,,0
12074,12074,"JOHNSTON AVE + SECOND",,40.406185,-79.942843,01,,,,,0
12075,12075,"SECOND AVE + ELIZABETH",,40.406964,-79.943174,01,,,,,0
12076,12076,"SECOND AVE + TIPTON",,40.407659,-79.943375,01,,,,,0
12077,12077,"SECOND AVE + GLEN CALADH",,40.408923,-79.943734,01,,,,,0
12078,12078,"SECOND AVE + FLOWERS",,40.409879,-79.944012,01,,,,,0
12080,12080,"IRVINE ST + BERWICK",,40.413064,-79.945196,01,,,,,0
12081,12081,"IRVINE ST + TULLYMET",,40.414518,-79.945884,01,,,,,0
12082,12082,"IRVINE ST + MOBILE",,40.415956,-79.946641,01,,,,,0
12089,12089,"SECOND AVE + TECHNOLOGY DR",,40.434051,-79.965084,01,,,,,0
1209,1209,"EVERGREEN RD + JOHN",,40.487126,-79.972619,01,,,,,0
12090,12090,"SECOND AVE + BRADY",,40.435855,-79.972532,01,,,,,0
12091,12091,"MAIN CIRCLE DR + EMPLOYEE ENTRANCE",,40.407563,-79.929895,01,,,,,0
12092,12092,"SECOND AVE + SECOND AVE PARKING PL (#1250)",,40.434470,-79.987227,01,,,,,0
12094,12094,"SECOND AVE + BRADY",,40.435782,-79.972824,01,,,,,0
12095,12095,"SECOND AVE + TECHNOLOGY DR",,40.434089,-79.965542,01,,,,,0
12097,12097,"SECOND AVE + BATES FS",,40.430963,-79.959081,01,,,,,0
12100,12100,"GREENFIELD AVE + IRVINE ST",,40.424858,-79.952592,01,,,,,0
12103,12103,"IRVINE ST + MOBILE",,40.416081,-79.946823,01,,,,,0
12105,12105,"IRVINE ST + BERWICK",,40.413123,-79.945349,01,,,,,0
12106,12106,"IRVINE ST + HAZELWOOD",,40.411400,-79.944840,01,,,,,0
12107,12107,"SECOND AVE + FLOWERS AVE",,40.410123,-79.944203,01,,,,,0
12108,12108,"SECOND AVE + TECUMSEH",,40.408757,-79.943805,01,,,,,0
12109,12109,"SECOND AVE + ELIZABETH",,40.407198,-79.943363,01,,,,,0
1211,1211,"EVERGREEN RD + DAVID",,40.489175,-79.972150,01,,,,,0
12111,12111,"JOHNSTON AVE + GERTRUDE",,40.406496,-79.941243,01,,,,,0
12112,12112,"JOHNSTON AVE + GLENWOOD",,40.406469,-79.939846,01,,,,,0
12113,12113,"JOHNSTON AVE + WINSTON",,40.405819,-79.938236,01,,,,,0
12115,12115,"JOHNSTON AVE + #643",,40.404825,-79.935035,01,,,,,0
12116,12116,"JOHNSTON AVE + #666",,40.405465,-79.933832,01,,,,,0
12118,12118,"JOHNSTON AVE + #857",,40.406120,-79.930677,01,,,,,0
12123,12123,"IMOGENE RD + DESDEMONA",,40.411704,-79.922799,01,,,,,0
12127,12127,"GREENFIELD AVE + SYLVAN",,40.425641,-79.949668,01,,,,,0
12129,12129,"GREENFIELD AVE + HAYWORTH",,40.425200,-79.945376,01,,,,,0
12130,12130,"GREENFIELD AVE + KEARCHER",,40.425299,-79.943942,01,,,,,0
12131,12131,"GREENFIELD AVE + LYDIA",,40.425471,-79.942559,01,,,,,0
12132,12132,"GREENFIELD AVE + HOOSAC",,40.425833,-79.941092,01,,,,,0
12133,12133,"GREENFIELD AVE + WINTERBURN",,40.426083,-79.940054,01,,,,,0
12134,12134,"GREENFIELD AVE + BLANTON ST STEPS",,40.424531,-79.937743,01,,,,,0
12135,12135,"GREENFIELD AVE + MCCASLIN",,40.424087,-79.936474,01,,,,,0
12136,12136,"GREENFIELD AVE + GRAPHIC",,40.424318,-79.935394,01,,,,,0
12138,12138,"GREENFIELD AVE + FRANK (#912)",,40.423938,-79.932797,01,,,,,0
12139,12139,"GREENFIELD AVE + DELEVAN",,40.423499,-79.931758,01,,,,,0
12143,12143,"SECOND AVE + WINSTON",,40.404649,-79.942636,01,,,,,0
12144,12144,"SECOND AVE + MANSION",,40.404020,-79.942468,01,,,,,0
12145,12145,"SECOND AVE + AMERICAN",,40.402927,-79.941978,01,,,,,0
12146,12146,"SECOND AVE + VESPUCIUS",,40.401689,-79.940663,01,,,,,0
12147,12147,"SECOND AVE + RENOVA",,40.400976,-79.939411,01,,,,,0
12148,12148,"SECOND AVE + ALUVIAN",,40.400208,-79.938132,01,,,,,0
12152,12152,"MIFFLIN RD + INTERBORO FS",,40.369984,-79.913408,01,,,,,0
12154,12154,"MIFFLIN RD + GLENHURST",,40.372058,-79.916852,01,,,,,0
12158,12158,"RAMP ST BRIDGE + BALDWIN",,40.386716,-79.932477,01,,,,,0
12159,12159,"BALDWIN ST + GLASS RUN",,40.389287,-79.932646,01,,,,,0
12160,12160,"SECOND AVE + ALUVIAN",,40.400252,-79.937948,01,,,,,0
12161,12161,"SECOND AVE + GLENWOOD",,40.400994,-79.939296,01,,,,,0
12162,12162,"SECOND AVE + VESPUCIUS",,40.401704,-79.940508,01,,,,,0
12163,12163,"SECOND AVE + MANSION",,40.403622,-79.942219,01,,,,,0
12164,12164,"SECOND AVE + WINSTON",,40.404466,-79.942480,01,,,,,0
12165,12165,"SECOND AVE + JOHNSTON",,40.405881,-79.942871,01,,,,,0
12167,12167,"WALNUT ST + PENN STATE MAIN BUILDING",,40.344797,-79.826586,01,,,,,0
12168,12168,"UNIVERSITY DR + EDEN PARK BLVD",,40.343265,-79.829087,01,,,,,0
12170,12170,"HARTMAN ST + SARAH ST FS",,40.349870,-79.834240,01,,,,,0
12177,12177,"FOURTH AVE + WOOD",,40.439482,-80.001669,01,,,,,0
12178,12178,"FOURTH AVE + GRANT FS",,40.437769,-79.997031,01,,,,,0
12180,12180,"SECOND AVE + B ST",,40.436324,-79.996554,01,,,,,0
12181,12181,"SECOND AVE + ALLEGHENY COUNTY JAIL",,40.435214,-79.993679,01,,,,,0
12182,12182,"SECOND AVE + JOHNSTON",,40.406173,-79.943062,01,,,,,0
12183,12183,"BALDWIN RD AT GLASS RUN RD",,40.389287,-79.932743,01,,,,,0
12186,12186,"MIFFLIN RD + GLENHURST",,40.372110,-79.917079,01,,,,,0
12187,12187,"MIFFLIN RD + #1236",,40.371105,-79.915089,01,,,,,0
122,122,"BABCOCK BLVD AT MCCANDLESS CROSSING",,40.569004,-80.016491,01,,,,,0
12201,12201,"HARTMAN ST + ANDERSON AVE",,40.349977,-79.834371,01,,,,,0
12209,12209,"GREENFIELD AVE + KEARCHER",,40.425354,-79.943777,01,,,,,0
12210,12210,"GREENFIELD AVE + HAYWORTH",,40.425372,-79.945104,01,,,,,0
12211,12211,"GREENFIELD AVE + YODER FS",,40.425297,-79.947543,01,,,,,0
12212,12212,"GREENFIELD AVE + FRAZIER ST",,40.425718,-79.949754,01,,,,,0
12215,12215,"HAZELWOOD AVE + SYLVAN AVE",,40.411892,-79.941803,01,,,,,0
12232,12232,"ALGER ST + WINTERBURN",,40.427103,-79.939605,01,,,,,0
12233,12233,"WINTERBURN AVE + GREENFIELD",,40.426299,-79.939836,01,,,,,0
12236,12236,"WINTERBURN AVE + FARNSWORTH FS",,40.423166,-79.939859,01,,,,,0
12237,12237,"WINTERBURN AVE + CONNOR",,40.420570,-79.939877,01,,,,,0
12238,12238,"WINTERBURN AVE + BIGELOW",,40.419024,-79.939888,01,,,,,0
12239,12239,"BIGELOW ST + MCCASLIN",,40.419069,-79.938281,01,,,,,0
12240,12240,"BIGELOW ST + TESLA",,40.419359,-79.936110,01,,,,,0
12241,12241,"HAZELWOOD AVE + NOTLEY",,40.419846,-79.931424,01,,,,,0
12242,12242,"HAZELWOOD AVE + GREENFIELD AVE",,40.419731,-79.929354,01,,,,,0
12248,12248,"HAZELWOOD AVE + SYVAN AVE",,40.411953,-79.941742,01,,,,,0
12250,12250,"HAZELWOOD AVE + SECOND AVE",,40.411411,-79.944466,01,,,,,0
12284,12284,"MIFFLIN RD + #605",,40.383235,-79.930313,01,,,,,0
123,123,"BABCOCK BLVD + DUNCAN AVE",,40.567435,-80.016556,01,,,,,0
12346,12346,"REGIS AVE EXT + HOME DEPOT",,40.339769,-79.953036,01,,,,,0
12357,12357,"KEEPORT + #5407",,40.339562,-79.980222,01,,,,,0
12358,12358,"KEEPORT + KNOEDLER",,40.341981,-79.981157,01,,,,,0
124,124,"BABCOCK BLVD OPP WINCHESTER DR",,40.566028,-80.016517,01,,,,,0
125,125,"BABCOCK BLVD + FAIRFIELD RD",,40.564226,-80.019086,01,,,,,0
12565,12565,"BRADDOCK HILLS SHOPPING CENTER + STOREFRONT",,40.414555,-79.853340,01,,,,,0
12567,12567,"6TH ST + BALDRIDGE",,40.405730,-79.863463,01,,,,,0
12576,12576,"CRAWFORD ST + JUNO",,40.362571,-79.853595,01,,,,,0
1258,1258,"AVALON LOOP + CALIFORNIA",,40.503682,-80.074369,01,,,,,0
12588,12588,"CRAWFORD ST + JUNO",,40.362483,-79.853675,01,,,,,0
12589,12589,"KENNYWOOD MALL DR + HOFFMAN",,40.382439,-79.868764,01,,,,,0
1259,1259,"CALIFORNIA AVE + FLORENCE",,40.503482,-80.074563,01,,,,,0
12590,12590,"AJAX WAY + COREY AVE",,40.408322,-79.867168,01,,,,,0
12594,12594,"WM PENN HWY + PENN CENTER NS (DONUT SHOP)",,40.430306,-79.813582,01,,,,,0
12595,12595,"FREEPORT RD + #1150",,40.488047,-79.879415,01,,,,,0
12596,12596,"FREEPORT RD + S OAK HILL RD",,40.488762,-79.877214,01,,,,,0
12597,12597,"FREEPORT RD + E OAK HILL RD",,40.489240,-79.875024,01,,,,,0
1260,1260,"CALIFORNIA AVE + FISK",,40.503205,-80.072517,01,,,,,0
12601,12601,"FREEPORT RD + ALPHA (RIDC PARK)",,40.491378,-79.866017,01,,,,,0
12602,12602,"FREEPORT RD + CENTER AVE (BLAWNOX)",,40.491803,-79.865135,01,,,,,0
12603,12603,"FREEPORT RD + BLAW",,40.492792,-79.863087,01,,,,,0
12604,12604,"FREEPORT RD + MAPLE",,40.493918,-79.860825,01,,,,,0
12605,12605,"FREEPORT RD + CABLE",,40.494788,-79.859041,01,,,,,0
12606,12606,"FREEPORT RD + HUMBOLDT",,40.496128,-79.857172,01,,,,,0
12608,12608,"FREEPORT RD + BOYD",,40.497920,-79.854793,01,,,,,0
12610,12610,"FREEPORT RD + CLIFTON",,40.499529,-79.852853,01,,,,,0
12613,12613,"FREEPORT RD + #2238",,40.527344,-79.850562,01,,,,,0
12616,12616,"FREEPORT RD + GUYS RUN RD",,40.533763,-79.844916,01,,,,,0
12617,12617,"FREEPORT RD + VALLEY MOTEL",,40.535264,-79.842571,01,,,,,0
12618,12618,"FREEPORT RD +HWY RT 910( WERNER CAMP)",,40.536857,-79.839260,01,,,,,0
12619,12619,"FREEPORT RD + ALPHA DR W",,40.537748,-79.834780,01,,,,,0
1262,1262,"CALIFORNIA AVE + BIRMINGHAM",,40.501869,-80.069385,01,,,,,0
12620,12620,"ALPHA DR + FREEPORT FS",,40.539391,-79.830643,01,,,,,0
12634,12634,"E 6TH AVE + LOCK",,40.602516,-79.754408,01,,,,,0
12635,12635,"E 7TH AVE + WOOD",,40.602566,-79.755702,01,,,,,0
12638,12638,"7TH AVE + CENTER",,40.600351,-79.760731,01,,,,,0
12639,12639,"7TH AVE + WESTERN",,40.599447,-79.762397,01,,,,,0
1264,1264,"CALIFORNIA AVE + CHESTNUT",,40.500204,-80.066015,01,,,,,0
12640,12640,"7TH AVE + GRANTHAM",,40.598318,-79.764464,01,,,,,0
12642,12642,"FREEPORT RD + WORKS ENT #3",,40.593011,-79.770861,01,,,,,0
12644,12644,"FREEPORT RD + BARTSCH",,40.585804,-79.777023,01,,,,,0
12645,12645,"FREEPORT RD + ROWES CROSSING",,40.583650,-79.777950,01,,,,,0
12646,12646,"FREEPORT RD + CRAWFORD RUN",,40.582478,-79.778435,01,,,,,0
12647,12647,"FREEPORT RD + MURRAY HILL",,40.581448,-79.778872,01,,,,,0
12650,12650,"FREEPORT RD + 3RD",,40.577020,-79.778416,01,,,,,0
12651,12651,"FREEPORT RD + 2ND",,40.574878,-79.777883,01,,,,,0
12652,12652,"FREEPORT RD + 1ST",,40.573322,-79.777489,01,,,,,0
12656,12656,"FREEPORT RD + #153",,40.567774,-79.776218,01,,,,,0
12658,12658,"4TH AVE + CENTRAL CITY PLAZA",,40.564138,-79.766112,01,,,,,0
12659,12659,"4TH AVE + 7TH",,40.562590,-79.765741,01,,,,,0
12660,12660,"7TH ST + NEW KEN HOSPITAL",,40.562312,-79.766678,01,,,,,0
12661,12661,"INDUSTRIAL BLVD + KEY LINCOLN-MERCURY",,40.563447,-79.767920,01,,,,,0
12662,12662,"FREEPORT RD + GLASSMERE GAS STATION",,40.560579,-79.772956,01,,,,,0
12663,12663,"FREEPORT RD + RIDDLE RUN",,40.545899,-79.770572,01,,,,,0
12664,12664,"PITTSBURGH ST + BUTLER FS",,40.542507,-79.773393,01,,,,,0
12665,12665,"PITTSBURGH ST + ORCHARD",,40.542023,-79.774696,01,,,,,0
12666,12666,"PITTSBURGH ST + MOYHEND",,40.541829,-79.775830,01,,,,,0
12668,12668,"PITTSBURGH ST + JAMES FS",,40.541225,-79.780351,01,,,,,0
1267,1267,"CALIFORNIA AVE + HOME",,40.498601,-80.061969,01,,,,,0
12670,12670,"PITTSBURGH ST + MURTLAND",,40.541130,-79.782293,01,,,,,0
12671,12671,"PITTSBURGH ST + COLFAX",,40.541093,-79.783997,01,,,,,0
12673,12673,"PITTSBURGH ST + PORTER",,40.541262,-79.788470,01,,,,,0
12675,12675,"PITTSBURGH ST + DUQUESNE CT",,40.541009,-79.793372,01,,,,,0
12678,12678,"PITTSBURGH ST + ALLEGHENY",,40.541276,-79.797705,01,,,,,0
12680,12680,"PITTSBURGH ST + HILL",,40.541115,-79.802422,01,,,,,0
12683,12683,"FREEPORT RD + WILSON",,40.540666,-79.809401,01,,,,,0
12684,12684,"FREEPORT RD + ORR",,40.540497,-79.811728,01,,,,,0
12685,12685,"FREEPORT RD + JEFFERSON",,40.540527,-79.813489,01,,,,,0
12686,12686,"FREEPORT RD + PEARL",,40.540773,-79.816047,01,,,,,0
12687,12687,"FREEPORT RD + MULLIGANS",,40.540985,-79.818588,01,,,,,0
12689,12689,"FREEPORT RD + ALPHA DR E",,40.538742,-79.830223,01,,,,,0
1269,1269,"LINCOLN AVE + JACKSON",,40.496910,-80.058350,01,,,,,0
12693,12693,"MAIN ST + 21ST ST",,40.493679,-79.915704,01,,,,,0
12694,12694,"MAIN ST + 19TH ST",,40.494085,-79.917976,01,,,,,0
12695,12695,"MAIN ST + #1834",,40.494459,-79.920310,01,,,,,0
12696,12696,"MAIN ST + 18TH ST",,40.494598,-79.921517,01,,,,,0
12697,12697,"MAIN ST + #1704",,40.494731,-79.923001,01,,,,,0
12698,12698,"MAIN ST + 16TH ST",,40.494705,-79.925229,01,,,,,0
12699,12699,"MAIN ST + 15TH ST",,40.494604,-79.926230,01,,,,,0
127,127,"CORPORATE DR + #5700",,40.563606,-80.022751,01,,,,,0
12700,12700,"MAIN ST + 14TH ST",,40.494494,-79.927422,01,,,,,0
12701,12701,"MAIN ST + 13TH ST",,40.494358,-79.929604,01,,,,,0
12702,12702,"MAIN ST + #1102",,40.494275,-79.930866,01,,,,,0
12703,12703,"MAIN ST + CANAL ST",,40.494602,-79.932179,01,,,,,0
12704,12704,"MAIN ST + 9TH ST",,40.494639,-79.933472,01,,,,,0
12705,12705,"MAIN ST + 8TH ST",,40.494662,-79.934381,01,,,,,0
12706,12706,"MAIN ST + 6TH ST",,40.494693,-79.935699,01,,,,,0
12707,12707,"MAIN ST + GARNIER ST",,40.495318,-79.937477,01,,,,,0
12708,12708,"MAIN ST + POWERS ST",,40.495638,-79.938347,01,,,,,0
1271,1271,"LINCOLN AVE + SHERIDAN AVE",,40.495209,-80.054928,01,,,,,0
12710,12710,"FREEPORT ST + GARDEN",,40.496703,-79.942578,01,,,,,0
12711,12711,"FREEPORT RD + BUTLER",,40.496504,-79.943842,01,,,,,0
1273,1273,"FREMONT AVE + TEECE AVE",,40.495795,-80.051680,01,,,,,0
1274,1274,"FREMONT AVE + ORCHARD AVE",,40.497647,-80.050595,01,,,,,0
1275,1275,"FOREST AVE + #414",,40.498951,-80.050481,01,,,,,0
12750,12750,"RIDC PARK + TERMINAL",,40.500414,-79.860934,01,,,,,0
12760,2422,"BUTLER ST + FREEPORT ST",,40.496406,-79.944150,01,,,,,0
12761,12761,"FREEPORT ST + BRIDGE",,40.496748,-79.942023,01,,,,,0
12763,12763,"MAIN ST + PRAEGER ST",,40.495230,-79.937459,01,,,,,0
12764,12764,"MAIN ST OPP 6TH ST FS",,40.494836,-79.936179,01,,,,,0
12765,12765,"MAIN ST + ALI ST",,40.494596,-79.934724,01,,,,,0
12766,12766,"MAIN ST + 9TH ST",,40.494561,-79.933664,01,,,,,0
12767,12767,"MAIN ST + CANAL ST",,40.494509,-79.932054,01,,,,,0
12768,12768,"MAIN ST + #1113",,40.494230,-79.930445,01,,,,,0
12769,12769,"MAIN ST + 13TH ST",,40.494300,-79.929416,01,,,,,0
1277,1277,"FOREST AVE + BALPH AVE",,40.499958,-80.052374,01,,,,,0
12770,12770,"MAIN ST + 14TH ST",,40.494427,-79.927564,01,,,,,0
12771,12771,"MAIN ST + 15TH ST",,40.494494,-79.926529,01,,,,,0
12772,12772,"MAIN ST + 16TH ST",,40.494640,-79.925153,01,,,,,0
12773,12773,"MAIN ST + 17TH ST",,40.494693,-79.923436,01,,,,,0
12774,12774,"MAIN ST + 18TH ST",,40.494563,-79.921886,01,,,,,0
12775,12775,"MAIN ST + #1841",,40.494322,-79.919910,01,,,,,0
12776,12776,"MAIN ST + 19TH ST",,40.494031,-79.918107,01,,,,,0
12777,12777,"MAIN ST + 21ST ST",,40.493651,-79.915963,01,,,,,0
1278,1278,"FOREST AVE + #546",,40.500676,-80.053763,01,,,,,0
12782,12782,"FREEPORT RD + ALPHA DR E",,40.538586,-79.830208,01,,,,,0
12784,12784,"FREEPORT RD + # 1101 (MULLIGANS)",,40.540913,-79.818825,01,,,,,0
12785,12785,"FREEPORT RD + PEARL",,40.540734,-79.816466,01,,,,,0
12786,12786,"FREEPORT RD + JEFFERSON",,40.540454,-79.813517,01,,,,,0
12787,12787,"FREEPORT RD + ORR",,40.540421,-79.811831,01,,,,,0
12788,12788,"FREEPORT RD + WILSON",,40.540578,-79.809571,01,,,,,0
1279,1279,"FOREST AVE + CAROLYN AVE",,40.502514,-80.054345,01,,,,,0
12790,12790,"PITTSBURGH ST + PILLOW",,40.540998,-79.804275,01,,,,,0
12791,12791,"PITTSBURGH ST + HILL",,40.541061,-79.802482,01,,,,,0
12792,12792,"PITTSBURGH ST + HIGHLAND FS",,40.541445,-79.799743,01,,,,,0
12793,12793,"PITTSBURGH ST + ALLEGHENY",,40.541225,-79.797943,01,,,,,0
12794,12794,"PITTSBURGH ST + SHADY",,40.540921,-79.795923,01,,,,,0
12796,12796,"PITTSBURGH ST + DUQUESNE CT",,40.540940,-79.793071,01,,,,,0
12797,12797,"PITTSBURGH ST + WASHINGTON",,40.541106,-79.790545,01,,,,,0
12798,12798,"PITTSBURGH ST + PORTER",,40.541169,-79.788926,01,,,,,0
12799,12799,"PITTSBURGH ST + ROSA",,40.541180,-79.786429,01,,,,,0
1280,1280,"FOREST AVE + MARYLAND AVE",,40.504092,-80.052545,01,,,,,0
12801,12801,"PITTSBURGH ST + OAK",,40.541037,-79.782300,01,,,,,0
12802,12802,"PITTSBURGH + JAMES",,40.541182,-79.779641,01,,,,,0
12803,12803,"PITTSBURGH + SCHOOL",,40.541380,-79.777912,01,,,,,0
12804,12804,"PITTSBURGH + MOYHEND",,40.541693,-79.776120,01,,,,,0
12805,12805,"PITTSBURGH + HARTREY",,40.541945,-79.774666,01,,,,,0
12806,12806,"PITTSBURGH + BUTLER",,40.542548,-79.773145,01,,,,,0
12807,12807,"FREEPORT RD + RIDDLE RUN",,40.546179,-79.770383,01,,,,,0
12808,12808,"FREEPORT RD + GLASSMERE GAS STATION",,40.560153,-79.772559,01,,,,,0
12809,12809,"FREEPORT RD + #153",,40.567870,-79.776113,01,,,,,0
1281,1281,"FOREST AVE + RAVENSWOOD AVE",,40.505613,-80.051547,01,,,,,0
12813,12813,"FREEPORT RD + 1ST FS",,40.573294,-79.777354,01,,,,,0
12814,12814,"FREEPORT RD + 2ND FS",,40.574852,-79.777743,01,,,,,0
12815,12815,"FREEPORT RD + 3RD",,40.576934,-79.778255,01,,,,,0
12817,12817,"FREEPORT RD + MURRAY HILL",,40.581140,-79.778861,01,,,,,0
12818,12818,"FREEPORT RD + CRAWFORD RUN",,40.582387,-79.778334,01,,,,,0
12819,12819,"FREEPORT RD + ROWES CROSSING",,40.583613,-79.777835,01,,,,,0
12820,12820,"FREEPORT RD + BARTSCH",,40.585537,-79.777013,01,,,,,0
12826,12826,"W 7TH AVE + CENTER",,40.600178,-79.760818,01,,,,,0
12830,12830,"E 4TH AVE + HICKORY AL",,40.601977,-79.752892,01,,,,,0
12833,12833,"E 5TH AVE + ROSS",,40.601021,-79.756676,01,,,,,0
12834,21484,"ALPHA DR + FREEPORT RD FS",,40.491737,-79.866000,01,,,,,0
12836,12836,"ALPDA DR + PRINT TECH DRVWY",,40.493153,-79.870842,01,,,,,0
12838,12838,"RIDC PARK + TERMINAL",,40.500591,-79.864784,01,,,,,0
12847,12847,"ALPHA DR + BETA DR FS",,40.495142,-79.867763,01,,,,,0
1288,1288,"CENTER AVE + HARVARD AVE",,40.515067,-80.044763,01,,,,,0
1289,1289,"CENTER AVE + YALE AVE",,40.516736,-80.044425,01,,,,,0
129,129,"MCKNIGHT RD + MALIBRAN DR",,40.557392,-80.023102,01,,,,,0
1290,1290,"CENTER AVE + PRINCETON AVE",,40.518280,-80.044129,01,,,,,0
1291,1291,"CENTER AVE + CORNELL AVE",,40.519398,-80.043643,01,,,,,0
12989,12989,"PARKER ST + #90",,40.493801,-79.952087,01,,,,,0
13,99991,"GATEWAY STATION",,40.442189,-80.004205,FZ,,,,,0
1301,1301,"CENTER AVE + PRINCETON AVE",,40.518578,-80.044190,01,,,,,0
1302,1302,"CENTER AVE + YALE AVE",,40.516756,-80.044561,01,,,,,0
13023,13023,"PARKER ST + #90",,40.493740,-79.951630,01,,,,,0
1303,1303,"CENTER AVE + HARVARD AVE",,40.515379,-80.044807,01,,,,,0
1304,1304,"CORNELL AVE + CORNELL AVE EXT",,40.513776,-80.045507,01,,,,,0
1306,1306,"CORNELL AVE + OAKRIDGE RD",,40.510788,-80.045582,01,,,,,0
1309,1309,"FOREST AVE + KLEMONT AVE",,40.506703,-80.051236,01,,,,,0
1310,1310,"FOREST AVE + RAVENSWOOD AVE",,40.505840,-80.051601,01,,,,,0
1311,1311,"FOREST AVE + MARYLAND AVE",,40.504290,-80.052416,01,,,,,0
1312,1312,"FOREST AVE + CAROLYN AVE FS",,40.502197,-80.054516,01,,,,,0
1313,1313,"FOREST AVE + #550",,40.500908,-80.054315,01,,,,,0
1314,1314,"FOREST AVE + BALPH AVE",,40.499997,-80.052596,01,,,,,0
1317,1317,"BALPH AVE + TEECE AVE",,40.497370,-80.054360,01,,,,,0
1319,1319,"LINCOLN AVE + JACKSON",,40.496790,-80.057952,01,,,,,0
132,132,"MCKNIGHT RD + BROWNS LN",,40.545997,-80.017083,01,,,,,0
1320,1320,"LINCOLN AVE + STARR AVE",,40.497794,-80.059989,01,,,,,0
1321,1321,"CALIFORNIA AVE + HOME",,40.498584,-80.061700,01,,,,,0
1324,1324,"CALIFORNIA AVE + CHESTNUT",,40.500071,-80.065466,01,,,,,0
1325,1325,"CALIFORNIA AVE + SCHOOL",,40.500970,-80.067130,01,,,,,0
1326,1326,"CALIFORNIA AVE + BIRMINGHAM",,40.501814,-80.068955,01,,,,,0
13317,13317,"FREEPORT RD + PENNSYLVANIA",,40.624944,-79.723233,01,,,,,0
13318,13318,"FREEPORT RD + PRINCETON",,40.623948,-79.724420,01,,,,,0
13319,13319,"FREEPORT RD + FAIRMONT",,40.622225,-79.727024,01,,,,,0
1332,1332,"MERCHANT ST + 8TH NS",,40.589542,-80.229424,01,,,,,0
13320,13320,"FREEPORT RD + MONTANA",,40.621186,-79.728489,01,,,,,0
13321,13321,"FREEPORT RD + IDAHO",,40.619673,-79.730355,01,,,,,0
13323,13323,"FREEPORT RD + ALABAMA",,40.616583,-79.736409,01,,,,,0
13324,13324,"FREEPORT RD + MILE LOCK",,40.615670,-79.738702,01,,,,,0
13326,13326,"9TH ST + MORGAN",,40.609611,-79.741848,01,,,,,0
13333,13333,"FREEPORT RD + MILE LOCK",,40.615491,-79.738793,01,,,,,0
13334,13334,"FREEPORT RD + ALABAMA",,40.616348,-79.736633,01,,,,,0
13335,13335,"FREEPORT RD + ARGONNE",,40.617415,-79.733948,01,,,,,0
13336,13336,"FREEPORT RD + CALIFORNIA",,40.618123,-79.732368,01,,,,,0
13337,13337,"FREEPORT RD + IDAHO",,40.619336,-79.730541,01,,,,,0
13338,13338,"FREEPORT RD + MONTANA",,40.620925,-79.728594,01,,,,,0
13339,13339,"FREEPORT RD + PRINCETON",,40.623707,-79.724534,01,,,,,0
1334,1334,"MERCHANT ST + 6TH",,40.586599,-80.227418,01,,,,,0
1335,1335,"MERCHANT ST + 4TH",,40.583768,-80.225291,01,,,,,0
13357,13357,"ALPHA DR + FREEPORT RD",,40.491642,-79.866073,01,,,,,0
1337,1337,"MERCHANT ST + PA JOB SERVICE",,40.580116,-80.222298,01,,,,,0
1338,1338,"MERCHANT ST + VALLEY",,40.579876,-80.221603,01,,,,,0
134,134,"MCKNIGHT RD + TOYOTA DEALERSHIP",,40.540305,-80.012294,01,,,,,0
1340,1340,"BEAVER RD + LEET FS",,40.571251,-80.216332,01,,,,,0
13404,13404,"FREEPORT RD + SAXONBURG",,40.636115,-79.712513,01,,,,,0
13405,13405,"FREEPORT RD + LENGEL",,40.634599,-79.713500,01,,,,,0
13406,13406,"FREEPORT RD + DAVIS",,40.632736,-79.714828,01,,,,,0
13408,13408,"FREEPORT RD + BURTNER",,40.629697,-79.718271,01,,,,,0
13409,13409,"FREEPORT RD + BEACON",,40.629010,-79.718945,01,,,,,0
1341,1341,"BEAVER RD + BROAD FS",,40.569439,-80.213829,01,,,,,0
13410,13410,"FREEPORT RD + LILAC FS",,40.628311,-79.719634,01,,,,,0
13411,13411,"FREEPORT RD + POPLAR",,40.627358,-79.720678,01,,,,,0
1342,1342,"BEAVER RD + #305",,40.567784,-80.211586,01,,,,,0
1343,1343,"BEAVER RD + RAPP",,40.566605,-80.209746,01,,,,,0
1344,1344,"BEAVER RD + SPENCER",,40.565003,-80.207118,01,,,,,0
1345,1345,"BEAVER RD + CAMP MEETING",,40.564054,-80.205796,01,,,,,0
13459,13459,"FREEPORT RD + ROSS",,40.627822,-79.719322,01,,,,,0
1346,1346,"BEAVER RD + OAK",,40.562504,-80.204071,01,,,,,0
13460,13460,"FREEPORT RD + BURTNER",,40.629480,-79.717677,01,,,,,0
13461,13461,"FREEPORT RD + PAINTER",,40.630989,-79.715912,01,,,,,0
13462,13462,"FREEPORT RD + AUTO PARTS STORE",,40.631893,-79.715232,01,,,,,0
13464,13464,"FREEPORT RD + HARRISON",,40.634537,-79.713376,01,,,,,0
13465,13465,"FREEPORT RD + SAXONBURG",,40.636058,-79.712346,01,,,,,0
13466,13466,"FREEPORT RD + OLIVE",,40.638864,-79.711198,01,,,,,0
13467,13467,"FREEPORT RD + SPRING HILL",,40.626810,-79.721289,01,,,,,0
13468,13468,"FREEPORT RD + HARVARD",,40.625907,-79.722268,01,,,,,0
1347,1347,"BEAVER RD + VALLEY",,40.561104,-80.202660,01,,,,,0
13471,13471,"PENN ST + UNION",,40.613160,-79.741656,01,,,,,0
13472,13472,"PENN ST + ATLANTIC",,40.611679,-79.740818,01,,,,,0
13473,13473,"PENN ST + ROUP",,40.610882,-79.740494,01,,,,,0
13474,13474,"9TH ST + PENN FS",,40.609964,-79.740358,01,,,,,0
13475,13475,"9TH ST + PROSPECT",,40.609062,-79.744141,01,,,,,0
13476,13476,"9TH ST + GRANT",,40.608344,-79.745864,01,,,,,0
13477,13477,"9TH ST + HORNER",,40.607609,-79.747475,01,,,,,0
13478,13478,"9TH ST + ORMOND",,40.606850,-79.749140,01,,,,,0
13479,13479,"9TH ST + CORBET",,40.604916,-79.753464,01,,,,,0
1348,1348,"BEAVER RD + VILLAGE DR",,40.559555,-80.201319,01,,,,,0
1349,1349,"BEAVER RD + LITTLE SEWICKLEY",,40.558785,-80.200394,01,,,,,0
13490,13490,"9TH ST + MORGAN",,40.609467,-79.742065,01,,,,,0
13492,13492,"PENN ST + ATLANTIC",,40.611543,-79.740670,01,,,,,0
13494,13494,"PENN ST + UNION",,40.613040,-79.741480,01,,,,,0
13496,13496,"BOYCE CAMPUS EAST PKG LOT + STEPS",,40.453202,-79.751368,01,,,,,0
13498,13498,"BEATTY RD + COLLEGE PARK",,40.441799,-79.743065,01,,,,,0
135,135,"MCKNIGHT RD + ROSS TOWNE CENTER",,40.537777,-80.011459,01,,,,,0
1350,1350,"BEAVER RD + SHIELDS",,40.557237,-80.198242,01,,,,,0
13500,13500,"OLD WM PENN HWY + GLENWOOD DR",,40.440760,-79.745005,01,,,,,0
13502,13502,"OLD WM PENN HWY + BAYHILL DR",,40.441806,-79.749807,01,,,,,0
13503,13503,"OLD WM PENN HWY + SCOTT DR",,40.441522,-79.751442,01,,,,,0
13504,13504,"OLD WM PENN HWY + WILLIAMSBURG DR",,40.441433,-79.753636,01,,,,,0
13506,13506,"OLD WM PENN HWY + GOOD SHEPHERD",,40.443849,-79.757671,01,,,,,0
13507,13507,"HAYMAKER RD + CLOVER DR",,40.442448,-79.760208,01,,,,,0
13508,13508,"LOWES DR + FOX PLAN RD FS",,40.438045,-79.761741,01,,,,,0
13509,13509,"WM PENN HWY + SUNRISE HOTEL",,40.438953,-79.764900,01,,,,,0
1351,1351,"BEAVER RD + CHURCH",,40.556338,-80.196974,01,,,,,0
13512,13512,"WM PENN HWY + DUFFS",,40.438225,-79.774095,01,,,,,0
13513,13513,"WM PENN HWY + RED LOBSTER",,40.438007,-79.775597,01,,,,,0
13515,13515,"WM PENN HWY + COUNTRY SQUARE SHOPPING CENTER",,40.436615,-79.782997,01,,,,,0
13516,13516,"MALL BLVD + MALL BLVD PLAZA",,40.434898,-79.786522,01,,,,,0
13517,13517,"MALL BLVD + STEPS",,40.433785,-79.788780,01,,,,,0
13518,13518,"WM PENN HWY + RODI FS",,40.438462,-79.830801,01,,,,,0
13521,13521,"MCCRADY RD AT BEULAH CHURCH PARK AND RIDE",,40.446281,-79.846642,01,,,,,0
13523,13523,"BEATTY RD + BRUNNER DR",,40.451878,-79.755051,01,,,,,0
13526,13526,"BEATTY RD + HAYMAKER RD",,40.448515,-79.761033,01,,,,,0
1353,1353,"BEAVER RD + CHESTNUT",,40.550271,-80.190464,01,,,,,0
1354,1354,"BEAVER RD + QUAKER",,40.548647,-80.189678,01,,,,,0
1355,1355,"BEAVER RD + MEADOW",,40.546842,-80.189357,01,,,,,0
13565,13565,"HOLIDAY PARK RD + HWY RT 286",,40.475287,-79.707584,01,,,,,0
13567,13567,"HWY RT 286 + DUANE",,40.468421,-79.705984,01,,,,,0
13568,13568,"HWY RT 286 AT HOLIDAY PARK VFD",,40.466522,-79.705536,01,,,,,0
13569,13569,"HWY RT 286 + PRESQUE ISLE",,40.463731,-79.705538,01,,,,,0
1357,1357,"BEAVER ST + GRANT",,40.543776,-80.185508,01,,,,,0
13570,13570,"HWY RT 286 + KANE (YMCA)",,40.458055,-79.708362,01,,,,,0
13571,13571,"HWY RT 286 + PINE VALLEY",,40.455090,-79.710802,01,,,,,0
13572,13572,"HWY RT 286 AT NEW TEXAS RD - PLUM PARK AND RIDE",,40.450972,-79.713580,01,,,,,0
13574,13574,"HWY RT 286 + WESTINGHOUSE #1",,40.442413,-79.713402,01,,,,,0
13576,13576,"HWY RT 286 + PROFESSIONAL CENTER",,40.435577,-79.713989,01,,,,,0
13577,13577,"HWY RT 286 + DAY CHEVROLET",,40.431539,-79.717118,01,,,,,0
1358,1358,"BEAVER ST + LITTLE",,40.542393,-80.183449,01,,,,,0
13585,13585,"WM PENN HWY + NOTTINGHAM",,40.438214,-79.830701,01,,,,,0
13588,13588,"RODI RD + PENN CENTER BLVD",,40.430393,-79.816969,01,,,,,0
1359,1359,"BEAVER ST + WALNUT",,40.541287,-80.181773,01,,,,,0
13590,13590,"PENN CENTER BLVD + PENN TOWERS (UPPER)",,40.424239,-79.812522,01,,,,,0
13591,13591,"PENN CENTER BLVD + BLDG #7",,40.426345,-79.811304,01,,,,,0
13592,13592,"PENN CENTER BLVD + BLDG #3",,40.428246,-79.811840,01,,,,,0
13593,13593,"PENN CENTER BLVD + WM PENN",,40.429811,-79.811999,01,,,,,0
13594,13594,"MALL BLVD + TGI FRIDAY",,40.433837,-79.788410,01,,,,,0
13595,13595,"MALL BLVD + PATEL BROTHERS",,40.434952,-79.786024,01,,,,,0
13596,13596,"MALL BLVD + WM PENN",,40.435894,-79.785446,01,,,,,0
13599,13599,"WM PENN HWY + RED LOBSTER",,40.437892,-79.775456,01,,,,,0
136,136,"MCKNIGHT RD + OLD MCKNIGHT RD",,40.533742,-80.011139,01,,,,,0
13600,13600,"WM PENN HWY + DENNYS",,40.438290,-79.772423,01,,,,,0
13601,13601,"WM PENN HWY + STROSCHEIN",,40.438534,-79.769760,01,,,,,0
13603,13603,"HAYMAKER RD + CLOVER DR",,40.442193,-79.760116,01,,,,,0
13604,13604,"OLD WM PENN HWY + GOOD SHEPHERD",,40.443722,-79.757749,01,,,,,0
13605,13605,"OLD WM PENN HWY + WILLIAMSBURG DR",,40.441411,-79.753778,01,,,,,0
13606,13606,"OLD WM PENN HWY + SCOTT DR",,40.441384,-79.751748,01,,,,,0
13607,13607,"OLD WM PENN HWY + BAYHILL DR",,40.441713,-79.749619,01,,,,,0
13609,13609,"OLD WM PENN HWY + GLENWOOD DR",,40.440660,-79.745259,01,,,,,0
1361,1361,"BEAVER ST + LOGAN FS",,40.538025,-80.178276,01,,,,,0
13610,13610,"BEATTY RD + COLLEGE PARK",,40.441634,-79.742771,01,,,,,0
13611,13611,"BEATTY RD + BEATTY POINTE VILLAGE",,40.445774,-79.747440,01,,,,,0
13620,13620,"BEATTY RD + BRUNNER DR",,40.451725,-79.755341,01,,,,,0
13629,13629,"HWY RT 286 + #1610",,40.435106,-79.714115,01,,,,,0
1363,1363,"BEAVER ST + BEAVER CT",,40.536419,-80.176705,01,,,,,0
13631,13631,"HWY RT 286 + WESTINGHOUSE #2",,40.442050,-79.713245,01,,,,,0
13633,13633,"HWY RT 286 OPP NEW TEXAS RD - PLUM PARK AND RIDE",,40.450647,-79.713551,01,,,,,0
13634,13634,"HWY RT 286 + PINE VALLEY",,40.454971,-79.710756,01,,,,,0
13635,13635,"HWY RT 286 + KANE (YMCA)",,40.457768,-79.708463,01,,,,,0
13636,13636,"HWY RT 286 + SANDUNE",,40.463377,-79.705450,01,,,,,0
13637,13637,"OLD ABERS CREEK RD + HOLIDAY PARK VFD",,40.466695,-79.705973,01,,,,,0
13638,13638,"FIESTA DR + SUN VALLEY",,40.471518,-79.707606,01,,,,,0
1364,1364,"BEAVER ST + BOUNDARY",,40.534951,-80.175360,01,,,,,0
13640,13640,"FIESTA DR + RIVIERA",,40.474728,-79.709107,01,,,,,0
1365,1365,"BEAVER ST + MCKOWN",,40.534035,-80.173831,01,,,,,0
1366,1366,"BEAVER ST + OSBORNE",,40.533115,-80.172087,01,,,,,0
1368,1368,"BEAVER ST + #1446",,40.529931,-80.165589,01,,,,,0
1370,1370,"BEAVER ST + SYCAMORE",,40.528420,-80.161725,01,,,,,0
13706,13706,"WM PENN HWY + PENN CENTER",,40.430082,-79.811688,01,,,,,0
13707,13707,"WM PENN HWY + HAWTHORNE",,40.432880,-79.819061,01,,,,,0
1371,1371,"BEAVER ST + RIVER",,40.526691,-80.159254,01,,,,,0
1373,1373,"OHIO RIVER BLVD OPP GLENFIELD PARK AND RIDE",,40.517850,-80.131232,01,,,,,0
1376,1376,"OHIO RIVER BLVD + WALLISTON",,40.511940,-80.103236,01,,,,,0
1377,1377,"OHIO RIVER BLVD + ALLEGHENY",,40.511400,-80.101116,01,,,,,0
1378,1378,"OHIO RIVER BLVD + PENNSYLVANIA",,40.511049,-80.099867,01,,,,,0
13789,13789,"FRANKSTOWN RD + CHAMPA ST",,40.462013,-79.859627,01,,,,,0
1379,1379,"OHIO RIVER BLVD + MAPLE",,40.510479,-80.098060,01,,,,,0
13791,13791,"FRANKSTOWN RD + HOWARD ST",,40.462757,-79.856728,01,,,,,0
13792,13792,"FRANKSTOWN RD + BON AIR RD",,40.463679,-79.855552,01,,,,,0
13793,13793,"FRANKSTOWN RD + ORIN ST",,40.464847,-79.853228,01,,,,,0
13794,13794,"FRANKSTOWN RD + CURTIS ST",,40.462707,-79.850078,01,,,,,0
13795,13795,"FRANKSTOWN RD + CRAB HOLLOW DR",,40.461843,-79.848849,01,,,,,0
13796,13796,"FRANKSTOWN RD + DUFFIELD AVE",,40.461323,-79.847962,01,,,,,0
13797,13797,"FRANKSTOWN RD AT HEBRON CHURCH",,40.460423,-79.844364,01,,,,,0
1380,1380,"OHIO RIVER BLVD + WILLOW",,40.510135,-80.094113,01,,,,,0
1381,1381,"OHIO RIVER BLVD + MEMORIAL",,40.508720,-80.090674,01,,,,,0
1382,1382,"OHIO RIVER BLVD + BRIGHTON (#7139)",,40.504826,-80.084668,01,,,,,0
1383,1383,"OHIO RIVER BLVD + DICKSON",,40.503591,-80.081160,01,,,,,0
1384,1384,"OHIO RIVER BLVD + MONITOR",,40.501564,-80.075483,01,,,,,0
13840,13840,"OLD WM PENN HWY + BEATTY",,40.440259,-79.742323,01,,,,,0
1385,1385,"OHIO RIVER BLVD + HARRISON",,40.500448,-80.073567,01,,,,,0
1386,1386,"OHIO RIVER BLVD + BIRMINGHAM AVE BRIDGE",,40.499137,-80.071566,01,,,,,0
1387,1387,"OHIO RIVER BLVD + ELIZABETH",,40.495937,-80.067434,01,,,,,0
1388,1388,"OHIO RIVER BLVD + EAT-N-PARK",,40.494148,-80.064288,01,,,,,0
1389,1389,"OHIO RIVER BLVD + RIVERVIEW",,40.491819,-80.061533,01,,,,,0
139,139,"MCKNIGHT RD + NORTH HILLS VILLAGE (NORTH ENT)",,40.528288,-80.007259,01,,,,,0
1390,1390,"OHIO RIVER BLVD + SPRING AVE (STEPS)",,40.488804,-80.057814,01,,,,,0
1391,1391,"OHIO RIVER BLVD + SHILOH",,40.487869,-80.056511,01,,,,,0
1392,1392,"OHIO RIVER BLVD + KENDALL",,40.486328,-80.054165,01,,,,,0
13931,13931,"HWY RT 286 + DAY CHEVROLET",,40.431525,-79.716964,01,,,,,0
1395,1395,"CALIFORNIA AVE + MARSHALL AVE",,40.462166,-80.031004,01,,,,,0
1397,1397,"BEAVER AVE + PENNSYLVANIA",,40.453468,-80.029129,01,,,,,0
1398,1398,"BEAVER AVE + NORTH",,40.452000,-80.028656,01,,,,,0
1400,1400,"BEAVER AVE + NORTH POINTE",,40.449610,-80.027035,01,,,,,0
14023,14023,"GREENSBURG PIKE + UNION",,40.381135,-79.817004,01,,,,,0
14024,14024,"GREENSBURG PIKE + HILDA",,40.380808,-79.814711,01,,,,,0
1407,1407,"EAST BUSWAY + PENN STATION C",,40.444022,-79.992052,01,,,,,0
1408,1408,"LIBERTY AVE + SMITHFIELD ST",,40.443417,-79.996451,01,,,,,0
1410,22256,"LIBERTY AVE + 6TH ST NS",,40.442127,-80.001396,01,,,,,0
14108,14108,"STATION ST. + HERMAN",,40.393280,-79.808411,01,,,,,0
1413,1413,"WESTERN AVE + MANHATTAN FS",,40.450377,-80.025365,01,,,,,0
1414,1414,"CHATEAU ST + NORTH",,40.451778,-80.027579,01,,,,,0
1415,1415,"CHATEAU ST + SHEFFIELD",,40.452677,-80.027880,01,,,,,0
1416,1416,"CHATEAU ST + PENNSYLVANIA",,40.453522,-80.028151,01,,,,,0
14164,14164,"FRANKSTOWN RD + 1ST REFORMED CHURCH",,40.481163,-79.822136,01,,,,,0
14165,14165,"FRANKSTOWN RD + CRESTVIEW RD",,40.479902,-79.822576,01,,,,,0
14179,14179,"UNIVERSAL RD + JOSLYN",,40.463120,-79.802682,01,,,,,0
1418,1418,"CHATEAU ST + JUNIATA",,40.456372,-80.029081,01,,,,,0
14186,14186,"UNIVERSAL RD + JOSLYN",,40.463295,-79.802536,01,,,,,0
14187,14187,"UNIVERSAL RD + STOTLER",,40.460789,-79.804611,01,,,,,0
14188,14188,"UNIVERSAL RD #1048",,40.460368,-79.807214,01,,,,,0
1419,1419,"CALIFORNIA AVE + MARSHALL AVE",,40.462064,-80.030585,01,,,,,0
14190,14190,"UNIVERSAL RD + FREY",,40.460517,-79.811247,01,,,,,0
14191,14191,"UNIVERSAL RD + COLLINS",,40.461216,-79.812707,01,,,,,0
14192,14192,"UNIVERSAL RD + GREENWAY",,40.462283,-79.814749,01,,,,,0
14193,14193,"UNIVERSAL RD + POPLAR RIDGE RD FS",,40.464636,-79.820254,01,,,,,0
14194,14194,"UNIVERSAL RD + VOLUNTEER FIRE CO",,40.466121,-79.824354,01,,,,,0
1421,1421,"OHIO RIVER BLVD + MILLERTON",,40.481481,-80.045977,01,,,,,0
1422,1422,"OHIO RIVER BLVD + KENDALL",,40.486275,-80.053883,01,,,,,0
14221,14221,"UNIVERSAL RD + #150",,40.466181,-79.822564,01,,,,,0
14226,14226,"UNIVERSAL RD + FREY",,40.460536,-79.811485,01,,,,,0
14227,14227,"UNIVERSAL RD + #1048",,40.460306,-79.806934,01,,,,,0
14228,14228,"UNIVERSAL RD + STOTLER",,40.460592,-79.804698,01,,,,,0
1424,1424,"OHIO RIVER BLVD + SHILOH",,40.487903,-80.056318,01,,,,,0
14242,14242,"FRANKSTOWN RD + 1ST REFORMED CHURCH",,40.481488,-79.821606,01,,,,,0
14248,14248,"VERONA RD + THIRD ST",,40.477950,-79.845127,01,,,,,0
1425,1425,"OHIO RIVER BLVD + SPRING AVE (STEPS)",,40.488865,-80.057664,01,,,,,0
1427,1427,"OHIO RIVER BLVD + EAT-N-PARK",,40.494317,-80.064299,01,,,,,0
1429,1429,"OHIO RIVER BLVD + LOCUST",,40.497706,-80.069651,01,,,,,0
1430,1430,"OHIO RIVER BLVD + BIRMINGHAM AVE BRIDGE",,40.499159,-80.071410,01,,,,,0
14305,14305,"HULTON RD + THE FAIRWAYS",,40.525983,-79.821770,01,,,,,0
14308,14308,"HULTON RD + 10TH",,40.523990,-79.831644,01,,,,,0
14309,14309,"HULTON RD + 9TH",,40.523839,-79.832854,01,,,,,0
1431,1431,"OHIO RIVER BLVD + HARRISON",,40.500467,-80.073427,01,,,,,0
14311,14311,"HULTON RD + 5TH",,40.525024,-79.838369,01,,,,,0
14319,14319,"ALLEGHENY RIVER BLVD + CENTER",,40.506754,-79.842946,01,,,,,0
1432,1432,"OHIO RIVER BLVD + FISK",,40.501390,-80.074861,01,,,,,0
14320,14320,"ALLEGHENY RIVER BLVD + SOUTH",,40.504978,-79.843143,01,,,,,0
14321,14321,"WILDWOOD AVE + #444",,40.503695,-79.841251,01,,,,,0
14322,14322,"WILDWOOD AVE + FOOD PARK",,40.503574,-79.840097,01,,,,,0
14323,14323,"VERONA RD + 2ND ST",,40.501560,-79.837734,01,,,,,0
14324,14324,"VERONA RD + ELLIOTT",,40.499010,-79.837516,01,,,,,0
14325,14325,"VERONA RD + RIVERVIEW",,40.497303,-79.836883,01,,,,,0
14326,14326,"VERONA RD + RAITHEL",,40.496224,-79.836830,01,,,,,0
14327,14327,"VERONA RD + RIVERSIDE",,40.493561,-79.836495,01,,,,,0
14328,14328,"VERONA RD + GALETON",,40.490444,-79.836174,01,,,,,0
1433,1433,"OHIO RIVER BLVD + LAUREL",,40.501937,-80.076208,01,,,,,0
14330,14330,"VERONA RD + POKETA",,40.486653,-79.837343,01,,,,,0
14331,14331,"VERONA RD + ARTHUR",,40.484963,-79.837450,01,,,,,0
14332,14332,"VERONA RD + HOMESTEAD",,40.481787,-79.838084,01,,,,,0
14333,14333,"VERONA RD + MAPLE",,40.479959,-79.839313,01,,,,,0
14334,14334,"VERONA RD + RANDOLPH",,40.478855,-79.840787,01,,,,,0
1434,1434,"OHIO RIVER BLVD + DICKSON",,40.503582,-80.080877,01,,,,,0
14340,14340,"VERONA RD + GRAHAM BLVD EXT",,40.463290,-79.865765,01,,,,,0
1435,1435,"OHIO RIVER BLVD + BRIGHTON",,40.504964,-80.084785,01,,,,,0
14355,14355,"HAMILTON AVE + JULIUS",,40.458267,-79.911563,01,,,,,0
14357,14357,"HAMILTON AVE + ENTERPRISE",,40.459349,-79.914352,01,,,,,0
14358,14358,"HAMILTON AVE + EAST LIBERTY BLVD",,40.459819,-79.915520,01,,,,,0
1436,1436,"OHIO RIVER BLVD + MEMORIAL DR",,40.508833,-80.090682,01,,,,,0
14363,14363,"BAUM BLVD + GRAHAM ST",,40.457481,-79.936798,01,,,,,0
14364,14364,"BAUM BLVD + LIBERTY AVE",,40.456721,-79.939483,01,,,,,0
14365,14365,"BAUM BLVD + CYPRESS ST FS",,40.455891,-79.942307,01,,,,,0
14366,14366,"BAUM BLVD + MOREWOOD AVE",,40.455071,-79.944977,01,,,,,0
14367,14367,"BAUM BLVD + MILLVALE AVE",,40.454454,-79.947569,01,,,,,0
14368,14368,"BAUM BLVD + ENFIELD ST",,40.454144,-79.949348,01,,,,,0
14369,14369,"BAUM BLVD + MELWOOD AVE",,40.454077,-79.951806,01,,,,,0
14370,14370,"CRAIG ST + BAUM BLVD FS",,40.454418,-79.953522,01,,,,,0
14371,14371,"HULTON RD + RIVERVIEW HS",,40.526325,-79.844132,01,,,,,0
1438,1438,"OHIO RIVER BLVD + ORCHARD",,40.510580,-80.097923,01,,,,,0
14382,14382,"FRANKSTOWN RD + SPRING GROVE RD",,40.474430,-79.822022,01,,,,,0
14384,14384,"FRANKSTOWN RD + PARKRIDGE DR FS",,40.470882,-79.821251,01,,,,,0
14385,14385,"FRANKSTOWN RD + HARVARD DR",,40.469486,-79.823647,01,,,,,0
14386,14386,"FRANKSTOWN RD + LIME HOLLOW RD",,40.468456,-79.824669,01,,,,,0
14387,14387,"FRANKSTOWN RD + RODI RD",,40.466393,-79.826126,01,,,,,0
14388,14388,"FRANKSTOWN RD + DUFF RD",,40.465041,-79.828292,01,,,,,0
1439,1439,"OHIO RIVER BLVD + PENNSYLVANIA",,40.511139,-80.099710,01,,,,,0
14390,14390,"FRANKSTOWN RD + BANYON DR",,40.466568,-79.832756,01,,,,,0
14391,14391,"FRANKSTOWN RD + HIGHPOINT DR FS",,40.467469,-79.834708,01,,,,,0
14393,14393,"FRANKSTOWN RD + ERHARDT DR",,40.465916,-79.838623,01,,,,,0
14394,14394,"FRANKSTOWN RD + BARTHOLOMEW CHURCH DR",,40.464932,-79.839371,01,,,,,0
14396,14396,"FRANKSTOWN RD + COAL HOLLOW RD",,40.460444,-79.842425,01,,,,,0
14397,14397,"FRANKSTOWN RD + #10485",,40.460592,-79.844448,01,,,,,0
14399,14399,"FRANKSTOWN RD + CRAB HOLLOW DR",,40.461884,-79.848788,01,,,,,0
1440,1440,"OHIO RIVER BLVD + ALLEGHENY",,40.511481,-80.100904,01,,,,,0
14400,14400,"FRANKSTOWN RD + CURTIS ST",,40.462830,-79.850126,01,,,,,0
14401,14401,"FRANKSTOWN RD + FRANKSTOWN GARDENS",,40.463667,-79.851234,01,,,,,0
14402,14402,"FRANKSTOWN RD + MCCLUTCHEON LN",,40.464876,-79.853070,01,,,,,0
14404,14404,"FRANKSTOWN RD + HOWARD ST",,40.463037,-79.856477,01,,,,,0
14406,14406,"FRANKSTOWN RD + CHAMPA ST",,40.462151,-79.859425,01,,,,,0
14408,14408,"FRANKSTOWN RD + GRAHAM BLVD",,40.461430,-79.862717,01,,,,,0
1441,1441,"OHIO RIVER BLVD + HAZELWOOD",,40.512184,-80.103676,01,,,,,0
14415,14415,"BAUM BLVD + MILLVALE AVE",,40.454308,-79.947853,01,,,,,0
14416,14416,"BAUM BLVD + MOREWOOD AVE",,40.454888,-79.945335,01,,,,,0
14417,14417,"BAUM BLVD + CYPRESS ST",,40.455864,-79.942077,01,,,,,0
14421,14421,"HAMILTON AVE + ENTERPRISE",,40.459316,-79.914620,01,,,,,0
14422,14422,"HAMILTON AVE + JULIUS",,40.458202,-79.911682,01,,,,,0
14435,14435,"VERONA RD + GIANT EAGLE",,40.462195,-79.865903,01,,,,,0
14436,14436,"VERONA RD + GRAHAM BLVD EXT",,40.463244,-79.865660,01,,,,,0
1444,1444,"OHIO RIVER BLVD + KILBUCK (I-79 ENT)",,40.517883,-80.130653,01,,,,,0
14442,14442,"VERONA RD + RANDOLPH",,40.478847,-79.840684,01,,,,,0
14443,14443,"VERONA RD + MAPLE",,40.479761,-79.839445,01,,,,,0
14444,14444,"VERONA RD + ROSEDALE",,40.481711,-79.838047,01,,,,,0
14445,14445,"VERONA RD + BRINLEY",,40.484391,-79.837354,01,,,,,0
14446,14446,"VERONA RD + POKETA",,40.486442,-79.837308,01,,,,,0
14448,14448,"VERONA RD + GALETON",,40.490376,-79.836093,01,,,,,0
14449,14449,"VERONA RD + QUINCY",,40.493472,-79.836379,01,,,,,0
14450,14450,"VERONA RD + RAITHEL FS",,40.496046,-79.836745,01,,,,,0
14451,14451,"VERONA RD + RIVERVIEW",,40.497389,-79.836822,01,,,,,0
14452,14452,"VERONA RD + ELLIOTT",,40.498911,-79.837415,01,,,,,0
14453,14453,"VERONA RD + 2ND",,40.501444,-79.837624,01,,,,,0
14456,14456,"ALLEGHENY RIVER BLVD + SOUTH",,40.504742,-79.843076,01,,,,,0
1446,1446,"BEAVER ST + RIVER",,40.526582,-80.158875,01,,,,,0
14466,14466,"HULTON RD + 5TH ST",,40.525004,-79.838598,01,,,,,0
14468,14468,"HULTON RD + 9TH",,40.523697,-79.833183,01,,,,,0
14469,14469,"HULTON RD + 10TH",,40.523865,-79.831764,01,,,,,0
1447,1447,"BEAVER ST + SYCAMORE",,40.528281,-80.161418,01,,,,,0
14471,14471,"HULTON RD + 12TH",,40.524319,-79.828995,01,,,,,0
14473,14473,"HULTON RD + THE FAIRWAYS",,40.525948,-79.821671,01,,,,,0
14474,14474,"HULTON RD + COXCOMB",,40.527034,-79.816721,01,,,,,0
1449,1449,"BEAVER ST + #1449",,40.529967,-80.165513,01,,,,,0
14508,14508,"HULTON RD + 3RD",,40.526027,-79.842532,01,,,,,0
14510,14510,"FRANKSTOWN RD + ROBINSON BLVD FS",,40.461225,-79.865464,01,,,,,0
14511,14511,"FRANKSTOWN RD + GRAHAM BLVD",,40.461374,-79.863266,01,,,,,0
14512,14512,"FRANKSTOWN RD + BEULAH RD FS",,40.460712,-79.841860,01,,,,,0
14513,14513,"FRANKSTOWN RD + RITZLAND RD",,40.462399,-79.840782,01,,,,,0
14514,14514,"FRANKSTOWN RD + VANCE ST",,40.463322,-79.839954,01,,,,,0
14516,14516,"FRANKSTOWN RD + ERHARDT DR",,40.465717,-79.838753,01,,,,,0
14517,14517,"FRANKSTOWN RD + HIGHLAND DR",,40.467125,-79.836296,01,,,,,0
1452,1452,"BEAVER ST + OSBORNE",,40.533083,-80.171872,01,,,,,0
14520,14520,"FRANKSTOWN RD + LONG RD",,40.465760,-79.832330,01,,,,,0
14522,14522,"FRANKSTOWN RD + RODI RD FS",,40.466628,-79.825881,01,,,,,0
14523,14523,"FRANKSTOWN RD + LIME HOLLOW RD",,40.468272,-79.824698,01,,,,,0
14524,14524,"FRANKSTOWN RD + HARVARD DR FS",,40.469431,-79.823570,01,,,,,0
14528,14528,"FRANKSTOWN RD + SHENANDOAH DR",,40.474221,-79.821772,01,,,,,0
1453,1453,"BEAVER ST + DAVIS LANE",,40.533931,-80.173463,01,,,,,0
1455,1455,"BEAVER ST + NEVIN",,40.536416,-80.176609,01,,,,,0
1456,1456,"BEAVER ST + ST ANDREWS CHURCH",,40.537341,-80.177487,01,,,,,0
14568,14568,"WASHINGTON BLVD + HIGHLAND",,40.474341,-79.908378,01,,,,,0
1457,1457,"BEAVER ST + STRAIGHT",,40.538414,-80.178535,01,,,,,0
14570,14570,"WASHINGTON BLVD + LIBERTY WELDING",,40.466916,-79.908610,01,,,,,0
14571,14571,"WASHINGTON BLVD + SHETLAND",,40.460079,-79.907074,01,,,,,0
14572,14572,"WASHINGTON BLVD + FRANKSTOWN",,40.458849,-79.907997,01,,,,,0
14573,14573,"FIFTH AVE + HAMILTON",,40.457381,-79.909031,01,,,,,0
14577,14577,"WASHINGTON BLVD + HIGHLAND",,40.474002,-79.908205,01,,,,,0
1458,1458,"BEAVER ST + BROAD",,40.540066,-80.180142,01,,,,,0
1459,1459,"BEAVER RD + BLACKBURN FS",,40.541481,-80.181943,01,,,,,0
1460,1460,"BEAVER ST + GRIMES",,40.542339,-80.183232,01,,,,,0
14601,14601,"CONNECTING RD + HAYMAKER RD",,40.449637,-79.761730,01,,,,,0
14602,14602,"CENTER RD + HELMAR DR FS",,40.452351,-79.761223,01,,,,,0
14605,14605,"CENTER RD + LORRAINE DR FS",,40.454655,-79.760244,01,,,,,0
14606,14606,"CENTER RD + COTTAGE LN",,40.456166,-79.759822,01,,,,,0
14610,14610,"CENTER RD + FOUR SEASONS APTS",,40.460966,-79.759405,01,,,,,0
14612,14612,"CENTER RD + WIMBLEDON DR",,40.467089,-79.757021,01,,,,,0
14614,14614,"MONROEVILLE-TRESTLE RD + FOUR SEASONS",,40.470100,-79.754807,01,,,,,0
1462,1462,"BEAVER ST + GRANT",,40.543882,-80.185546,01,,,,,0
14620,14620,"UNITY TRESTLE RD + #1049",,40.478284,-79.761287,01,,,,,0
14623,14623,"UNITY TRESTLE RD + COLLEGE AVE",,40.484570,-79.767443,01,,,,,0
14624,14624,"UNITY TRESTLE RD + JACKSON RD",,40.485456,-79.769142,01,,,,,0
1463,1463,"BEAVER RD + ACADEMY",,40.545031,-80.187257,01,,,,,0
14630,14630,"UNITY TRESTLE RD + UNIVERSAL RD",,40.490419,-79.783024,01,,,,,0
14634,14634,"LEECHBURG RD + BARCKHOFF ST FS",,40.493752,-79.789271,01,,,,,0
14636,14636,"LEECHBURG RD + SUTTON DR",,40.491851,-79.792853,01,,,,,0
1464,1464,"BEAVER RD + MEADOW FS",,40.546983,-80.189306,01,,,,,0
14642,14642,"LEECHBURG RD + COURTNEY DR",,40.486735,-79.804821,01,,,,,0
14643,14643,"LEECHBURG RD + CLOVERLEAF RD",,40.486989,-79.808504,01,,,,,0
14645,14645,"LEECHBURG RD + RICHEY DR",,40.486292,-79.814618,01,,,,,0
14646,14646,"LEECHBURG RD + SALTSBURG RD",,40.485149,-79.817707,01,,,,,0
14647,14647,"SALTSBURG RD + HULTON RD NS",,40.484593,-79.818763,01,,,,,0
1465,1465,"BEAVER RD + QUAKER",,40.548419,-80.189540,01,,,,,0
1466,1466,"BEAVER RD + CHESTNUT",,40.550158,-80.190300,01,,,,,0
14671,14671,"SALTSBURG RD + STOTLER RD",,40.482986,-79.809785,01,,,,,0
14674,14674,"SALTSBURG RD + ALCOMA GOLF CLUB",,40.481016,-79.802589,01,,,,,0
14675,14675,"SALTSBURG RD + HERSHEY RD",,40.477612,-79.799696,01,,,,,0
1468,1468,"BEAVER RD + CHURCH",,40.556247,-80.196793,01,,,,,0
14682,14682,"MAIN ST + THOMPSON RUN",,40.468484,-79.791108,01,,,,,0
14683,14683,"MAIN ST + #2344",,40.469586,-79.790071,01,,,,,0
14685,14685,"MAIN ST + REITER",,40.471881,-79.787714,01,,,,,0
14686,14686,"MAIN ST + #2636",,40.473420,-79.787598,01,,,,,0
14687,14687,"UNIVERSAL RD + AUSTIN",,40.475244,-79.786634,01,,,,,0
14688,14688,"UNIVERSAL RD + SALTBURG",,40.477453,-79.785231,01,,,,,0
14689,14689,"SALTSBURG RD + FORD AVE",,40.476689,-79.782775,01,,,,,0
1469,1469,"BEAVER RD + SHIELDS",,40.557205,-80.198096,01,,,,,0
14690,14690,"SALTSBURG RD + REITER RD",,40.476371,-79.780830,01,,,,,0
14691,14691,"SALTSBURG RD + CRESTVIEW DR",,40.476033,-79.778596,01,,,,,0
14693,14693,"SALTSBURG RD + MILLERS LN",,40.475159,-79.772827,01,,,,,0
14697,14697,"SALTSBURG RD + MONROEVILLE TRESTLE",,40.476504,-79.760247,01,,,,,0
14706,14706,"CENTER RD + FOUR SEASONS APTS",,40.461109,-79.759603,01,,,,,0
1471,1471,"BEAVER RD + VILLAGE DR",,40.559516,-80.201192,01,,,,,0
14710,14710,"CENTER RD + COTTAGE LN",,40.456222,-79.759882,01,,,,,0
14711,14711,"CENTER RD + FRANKLIN HEIGHTS DR FS",,40.454509,-79.760340,01,,,,,0
14714,14714,"CENTER RD + HELMAR DR FS",,40.452396,-79.761299,01,,,,,0
14716,14716,"HAYMAKER RD + BEATTY RD",,40.448775,-79.760531,01,,,,,0
1472,1472,"BEAVER RD + VALLEY",,40.561089,-80.202564,01,,,,,0
1473,1473,"BEAVER RD + OAK",,40.562412,-80.203866,01,,,,,0
1474,1474,"BEAVER RD + CAMP MEETING",,40.563841,-80.205374,01,,,,,0
14743,14743,"SALTSBURG RD + REGENCY DR",,40.475269,-79.770813,01,,,,,0
14745,14745,"SALTSBURG RD + CHAPEL HILL DENTAL (#7641)",,40.475128,-79.775271,01,,,,,0
14746,14746,"SALTSBURG RD + CRESTVIEW DR",,40.475920,-79.778182,01,,,,,0
14747,14747,"SALTSBURG RD + REITER RD",,40.476465,-79.780434,01,,,,,0
14748,14748,"SALTSBURG RD + FORD AVE",,40.476736,-79.782693,01,,,,,0
14749,14749,"SALTSBURG RD + UNIVERSAL RD FS",,40.477681,-79.785400,01,,,,,0
1475,1475,"BEAVER RD + SPENCER",,40.564936,-80.206919,01,,,,,0
14752,14752,"SALTSBURG RD + COLONIAL VILLAGE DR",,40.475044,-79.791016,01,,,,,0
14753,14753,"SALTSBURG RD + TILFORD RD",,40.475033,-79.792099,01,,,,,0
14754,14754,"SALTSBURG RD + CHANTICLEER DR",,40.475500,-79.793749,01,,,,,0
14755,14755,"SALTSBURG RD + ALCOMA DR",,40.477017,-79.798096,01,,,,,0
14756,14756,"SALTSBURG RD + HERSHEY RD",,40.477718,-79.799706,01,,,,,0
1476,1476,"BEAVER RD + RAPP",,40.566680,-80.209739,01,,,,,0
14760,14760,"SALTSBURG RD + STOTLER RD",,40.482749,-79.809457,01,,,,,0
14762,14762,"SALTSBURG RD + ASTER ST NS",,40.483902,-79.814333,01,,,,,0
14763,14763,"SALTSBURG RD + LEECHBURG RD",,40.484983,-79.817407,01,,,,,0
1477,1477,"BEAVER RD + #306",,40.567805,-80.211484,01,,,,,0
1478,1478,"BEAVER ST + BROAD",,40.569538,-80.213860,01,,,,,0
1479,1479,"BEAVER RD + LEET",,40.571419,-80.216356,01,,,,,0
14790,14790,"SALTSBURG RD + CHANTICLEER DR",,40.475468,-79.793738,01,,,,,0
14791,14791,"SALTSBURG RD + TILFORD RD",,40.475018,-79.792216,01,,,,,0
14792,14792,"SALTSBURG RD + COLONIAL VILLAGE DR",,40.475030,-79.790912,01,,,,,0
14796,14796,"SALTSBURG RD + PIERSON RUN RD FS",,40.477062,-79.759684,01,,,,,0
1480,1480,"BEAVER RD + MAIN FS",,40.578540,-80.220330,01,,,,,0
1481,1481,"MERCHANT ST + VALLEY",,40.579884,-80.221357,01,,,,,0
1483,1483,"MERCHANT ST + 3RD",,40.581822,-80.223754,01,,,,,0
1484,1484,"MERCHANT ST + 4TH FS",,40.584042,-80.225393,01,,,,,0
14844,14844,"FRIENDSHIP AVE + FAIRMOUNT FS",,40.461476,-79.934539,01,,,,,0
14852,14852,"FRIENDSHIP AVE + MILLVALE AVE",,40.462720,-79.945472,01,,,,,0
14853,14853,"FRIENDSHIP AVE + EDMOND ST",,40.462889,-79.947706,01,,,,,0
14854,14854,"FRIENDSHIP AVE + PEARL ST",,40.463490,-79.948812,01,,,,,0
14855,19120,"ELLA ST + FRIENDSHIP AVE FS",,40.464453,-79.950619,01,,,,,0
14856,14856,"ELLA ST + LIBERTY",,40.463297,-79.951732,01,,,,,0
14857,2609,"LIBERTY AVE + CANOE WAY",,40.463252,-79.955043,01,,,,,0
14861,19447,"HOWLEY ST + SHUR SAVE DRVWY (GANGWISH)",,40.464384,-79.952270,01,,,,,0
14862,14862,"HOWLEY ST + FRIENDSHIP",,40.465054,-79.951390,01,,,,,0
14863,14863,"FRIENDSHIP AVE + ELLA ST",,40.464615,-79.950508,01,,,,,0
14864,14864,"FRIENDSHIP AVE + TAYLOR ST",,40.464046,-79.949724,01,,,,,0
14865,14865,"FRIENDSHIP AVE + PEARL ST",,40.463627,-79.949135,01,,,,,0
14866,14866,"FRIENDSHIP AVE + EDMOND ST",,40.462614,-79.947863,01,,,,,0
14867,19127,"FRIENDSHIP AVE + MILLVALE AVE",,40.462386,-79.946194,01,,,,,0
14868,14868,"FRIENDSHIP AVE + GROSS",,40.462265,-79.944658,01,,,,,0
1487,1487,"MERCHANT ST + #826",,40.589468,-80.229295,01,,,,,0
1489,1489,"MERCHANT ST + 11TH",,40.592676,-80.230367,01,,,,,0
14920,14920,"LONG RD + DATURA",,40.462399,-79.833922,01,,,,,0
14921,14921,"LONG RD + PARIS",,40.459087,-79.833998,01,,,,,0
14922,14922,"LONG RD + SAYLONG",,40.456090,-79.835977,01,,,,,0
14923,14923,"LONG RD + PENTLAND",,40.454316,-79.837629,01,,,,,0
14950,14950,"LONG RD + ROSEWOOD",,40.454351,-79.837490,01,,,,,0
14951,14951,"LONG RD + SAYLONG",,40.455986,-79.835983,01,,,,,0
14952,14952,"LONG RD + JOAN",,40.458876,-79.833970,01,,,,,0
14953,14953,"LONG RD + ELIZABETH",,40.462170,-79.833965,01,,,,,0
14955,14955,"LONG RD + FRANKSTOWN",,40.465565,-79.832209,01,,,,,0
14959,14959,"JEFFERSON RD + UNIVERSAL",,40.465379,-79.824506,01,,,,,0
14962,19981,"MAIN ST + 62ND ST BRIDGE",,40.495403,-79.939415,01,,,,,0
14964,14964,"BUTLER ST + #6002",,40.486333,-79.943177,01,,,,,0
14965,14965,"BUTLER ST + 57TH",,40.485257,-79.946171,01,,,,,0
14966,14966,"BUTLER ST + 56TH",,40.484504,-79.947935,01,,,,,0
14967,14967,"BUTLER ST + 51ST (STANTON)",,40.478523,-79.955589,01,,,,,0
14968,14968,"BUTLER ST + 49TH",,40.477139,-79.956902,01,,,,,0
14969,14969,"BUTLER ST + 48TH",,40.475983,-79.957703,01,,,,,0
14970,14970,"BUTLER ST + 47TH",,40.474084,-79.957939,01,,,,,0
14971,14971,"BUTLER ST + 46TH",,40.472942,-79.958756,01,,,,,0
14972,14972,"BUTLER ST + 44TH",,40.471596,-79.959755,01,,,,,0
14973,14973,"BUTLER ST + 43RD",,40.470806,-79.960251,01,,,,,0
14974,14974,"BUTLER ST + 41ST",,40.469586,-79.961250,01,,,,,0
14976,14976,"BUTLER ST + MAIN",,40.469700,-79.960976,01,,,,,0
14977,14977,"BUTLER ST + 43RD",,40.470478,-79.960373,01,,,,,0
14978,14978,"BUTLER ST + 44TH",,40.471294,-79.959801,01,,,,,0
14979,14979,"BUTLER ST + 46TH",,40.472671,-79.958847,01,,,,,0
14980,14980,"BUTLER ST + 47TH",,40.473847,-79.957954,01,,,,,0
14981,14981,"BUTLER ST + 48TH",,40.475681,-79.957550,01,,,,,0
14982,14982,"BUTLER ST + 49TH",,40.476992,-79.956919,01,,,,,0
14983,14983,"BUTLER ST + 50TH",,40.477838,-79.956122,01,,,,,0
14984,14984,"BUTLER ST + 56TH",,40.484234,-79.948296,01,,,,,0
14985,14985,"BUTLER ST + 57TH",,40.485073,-79.946396,01,,,,,0
150,150,"MCKNIGHT RD + NORTHLAND MEDICAL CENTER",,40.519187,-80.005040,01,,,,,0
1502,1502,"STANWIX ST + PENN AVE (GATEWAY #2)",,40.442650,-80.004413,01,,,,,0
15071,15071,"CORBET ST + 8TH",,40.604394,-79.753265,01,,,,,0
15072,15072,"CORBET ST + 6TH",,40.603119,-79.752560,01,,,,,0
15079,15079,"CORBET ST + 6TH",,40.602932,-79.752394,01,,,,,0
15081,15081,"FREEPORT RD + SPRING HILL",,40.626517,-79.721271,01,,,,,0
15084,15084,"WASHINGTON BLVD + NEGLEY RUN FS",,40.470047,-79.908729,01,,,,,0
15090,15090,"LONG RD + BEULAH",,40.450710,-79.843491,01,,,,,0
15092,15092,"WM PENN HWY + OLD GATE",,40.445726,-79.855115,01,,,,,0
1510,1510,"GRANT ST + US STEEL STOP A",,40.441202,-79.995360,01,,,,,0
15109,19146,"BEULAH RD + MCCRADY RD",,40.446755,-79.848480,01,,,,,0
15112,15112,"HULTON RD + 13TH",,40.524735,-79.827057,01,,,,,0
15122,15122,"HULTON RD + HULTON ARBORS",,40.513655,-79.804199,01,,,,,0
15123,15123,"HULTON RD + HULTON ESTATES",,40.513214,-79.803198,01,,,,,0
15149,15149,"HULTON RD + HULTON ESTATES",,40.513394,-79.803444,01,,,,,0
15150,15150,"HULTON RD + HULTON ARBORS",,40.513741,-79.804234,01,,,,,0
1518,1518,"LINCOLN AVE + BRYANT AVE FS",,40.492377,-80.049175,01,,,,,0
1519,1519,"LINCOLN AVE + KENDALL AVE",,40.490959,-80.048218,01,,,,,0
15218,15218,"WOOD ST + FRANKLIN",,40.441207,-79.886095,01,,,,,0
1522,1522,"WINHURST ST + CAMBRONNE",,40.488513,-80.043615,01,,,,,0
1524,1524,"CAMBRONNE ST + BRIGHTON",,40.487628,-80.041148,01,,,,,0
1525,1525,"BRIGHTON RD + PENNOCK",,40.487296,-80.039297,01,,,,,0
1526,1526,"BRIGHTON RD + KLEBER",,40.487061,-80.038024,01,,,,,0
15263,15263,"FREEPORT RD + #1050",,40.487257,-79.884597,01,,,,,0
15270,15270,"WEST BUSWAY + SHERADEN STATION B",,40.452707,-80.052905,01,,,,,0
15275,15275,"WEST BUSWAY + CARNEGIE STATION",,40.406091,-80.090234,01,,,,,0
15276,15276,"WEST BUSWAY + CARNEGIE STATION",,40.406216,-80.090038,01,,,,,0
15277,15277,"WEST BUSWAY + BELL STATION C",,40.415600,-80.082726,01,,,,,0
15278,15278,"WEST BUSWAY + IDLEWOOD STATION C",,40.426224,-80.072562,01,,,,,0
15279,15279,"WEST BUSWAY + CRAFTON STATION C",,40.435745,-80.067571,01,,,,,0
1528,1528,"BRIGHTON RD + BENTON",,40.484520,-80.035973,01,,,,,0
15280,15280,"WEST BUSWAY + INGRAM STATION C",,40.443860,-80.065889,01,,,,,0
15281,15281,"WEST BUSWAY + SHERADEN STATION C",,40.452566,-80.052935,01,,,,,0
15283,15283,"LIBERTY AVE + 9TH ST",,40.442835,-79.998105,01,,,,,0
15284,1403,"LIBERTY AVE + SMITHFIELD ST",,40.443186,-79.996792,01,,,,,0
15285,15285,"LIBERTY AVE + WILLIAM PENN PL",,40.443544,-79.995390,01,,,,,0
15287,15287,"GRANT ST + LIBERTY AVE FS (FED BLDG)",,40.443292,-79.994316,01,,,,,0
1529,1529,"BRIGHTON RD + TERMON",,40.483136,-80.035509,01,,,,,0
1530,1530,"BRIGHTON RD + DAVIS",,40.481804,-80.034213,01,,,,,0
1532,1532,"BRIGHTON RD + ACACIA",,40.479720,-80.031195,01,,,,,0
1534,1534,"BRIGHTON RD + WOODS RUN",,40.476618,-80.031797,01,,,,,0
1535,1535,"BRIGHTON RD + WADLOW",,40.475463,-80.030641,01,,,,,0
15352,159,"MCKNIGHT RD + EVERGREEN RD",,40.493465,-80.011597,01,,,,,0
1536,1536,"BRIGHTON RD + SCHIMMER",,40.473804,-80.028981,01,,,,,0
1537,1537,"BRIGHTON RD + MCDOWELL",,40.471755,-80.027113,01,,,,,0
1539,1539,"BRIGHTON RD + WOODLAND",,40.470059,-80.025708,01,,,,,0
154,154,"MCKNIGHT RD + NELSON RUN RD",,40.507012,-80.006790,01,,,,,0
1540,1540,"BRIGHTON RD + HIGHWOOD",,40.468456,-80.025291,01,,,,,0
15418,15418,"DRIVE TO LOWES + STOREFRONT DRIVE",,40.412970,-79.903123,01,,,,,0
15423,15423,"GIANT EAGLE DRIVE + DRUG STORE",,40.411455,-79.908297,01,,,,,0
15428,15428,"AMITY ST + TARGET DRIVE",,40.409837,-79.912281,01,,,,,0
1543,1543,"BRIGHTON RD + OLIVER HIGH SCHOOL",,40.463874,-80.022922,01,,,,,0
15433,15433,"COMMONWEALTH + RITE AID",,40.383012,-79.876429,01,,,,,0
15438,15438,"MALL AT ROBINSON + ENTRANCE K",,40.452900,-80.156992,01,,,,,0
15452,15452,"NEGLEY AVE + KENTUCKY",,40.450566,-79.930145,01,,,,,0
15453,15453,"NEGLEY AVE + WALNUT",,40.452143,-79.931078,01,,,,,0
15454,15454,"NEGLEY AVE + ELMER",,40.453261,-79.931738,01,,,,,0
15455,15455,"NEGLEY AVE + ELLSWORTH",,40.454902,-79.932714,01,,,,,0
15456,15456,"NEGLEY AVE + CLAYBOURNE",,40.456655,-79.933747,01,,,,,0
1546,1546,"BRIGHTON RD + FARRIS ST (STEPS)",,40.462686,-80.020229,01,,,,,0
15462,15462,"CENTRE AVE + WHOLE FOODS",,40.458996,-79.928060,01,,,,,0
15463,15463,"HWY RT 51 + JEFFERSON VETERINARY CLINIC",,40.301396,-79.929547,01,,,,,0
1547,1547,"BRIGHTON RD + BRIGHTRIDGE",,40.461564,-80.019046,01,,,,,0
15474,15474,"GRANT ST + 7TH AVE FS",,40.442787,-79.994301,01,,,,,0
1549,1549,"BRIGHTON RD + CALIFORNIA AVE FS",,40.459423,-80.016752,01,,,,,0
15495,15495,"LARGE PARK AND RIDE INBOUND PL",,40.293240,-79.910950,01,,,,,0
1550,1550,"BRIGHTON RD + JACKSONIA ST",,40.457027,-80.015721,01,,,,,0
1551,1551,"BRIGHTON RD + PENNSYLVANIA AVE",,40.456200,-80.015452,01,,,,,0
1553,1553,"NORTH AVE + BRIGHTON RD FS",,40.454003,-80.014070,01,,,,,0
1554,1554,"NORTH AVE + MONTEREY ST",,40.454277,-80.012695,01,,,,,0
15548,15548,"MT ROYAL BLVD + HAMPTON",,40.554467,-79.971234,01,,,,,0
15549,19526,"PEEBLES + MCINTYRE SQUARE DRIVEWAY",,40.557269,-80.017633,01,,,,,0
1556,1556,"NORTH AVE + ARCH ST",,40.454999,-80.008809,01,,,,,0
1557,1557,"NORTH AVE + FEDERAL ST",,40.455316,-80.006962,01,,,,,0
15587,15587,"BLAZIER + GIANT EAGLE",,40.585354,-80.037534,01,,,,,0
15634,15634,"UNIVERSITY BLVD PARK AND RIDE AT SHELTER",,40.503917,-80.225737,01,,,,,0
15659,15659,"FORBES AVE + SCHENLEY DR",,40.437974,-79.933358,01,,,,,0
15664,15666,"GIANT EAGLE (VERONA RD) AT ENTRANCE",,40.462338,-79.865005,01,,,,,0
15665,15665,"ROBINSON BLVD + DOUGLAS",,40.455676,-79.863734,01,,,,,0
15671,15671,"CHISLETT ST + WELLSLEY",,40.475715,-79.929901,01,,,,,0
15674,15674,"PARK HILL DR + #2567",,40.456619,-79.871804,01,,,,,0
15675,15675,"PARK HILL DR + #2501",,40.456271,-79.873382,01,,,,,0
15676,15676,"PARK HILL DR + #2401",,40.455542,-79.874206,01,,,,,0
15678,15678,"PARK HILL DR + #2101",,40.452989,-79.874317,01,,,,,0
15716,15716,"ROSS PARK AND RIDE ENTRANCE AT HOV RAMP",,40.507614,-80.030113,01,,,,,0
15734,15734,"WARREN DR + WAL MART DRWY",,40.385718,-79.821611,01,,,,,0
15736,15736,"WARREN DR + WAL MART DRWY",,40.385476,-79.821663,01,,,,,0
15744,15744,"COCHRAN + OSAGE RD",,40.388581,-80.057434,01,,,,,0
15746,15746,"COCHRAN + ROBINWOOD",,40.390833,-80.059083,01,,,,,0
15747,15747,"COCHRAN + ROESSLER",,40.392973,-80.063113,01,,,,,0
1577,1577,"CHURCH AVE + FOREST AVE",,40.508209,-80.082928,01,,,,,0
1578,1578,"CHURCH AVE + DICKSON",,40.507545,-80.081372,01,,,,,0
1579,1579,"CHURCH AVE + RIDGE",,40.507353,-80.079397,01,,,,,0
158,158,"MCKNIGHT RD + IVORY AVE RAMP (ISLAND)",,40.498345,-80.013054,01,,,,,0
1580,1580,"CHURCH AVE + WALNUT",,40.506971,-80.076942,01,,,,,0
1581,1581,"CHURCH AVE + VICTORIA",,40.506461,-80.074766,01,,,,,0
1582,1582,"DIVISION ST + MARIE",,40.504389,-80.075174,01,,,,,0
15833,15833,"ARLINGTON+ JOHN F.S.",,40.417950,-79.987142,01,,,,,0
15835,15835,"BELTZHOOVER + CEDARHURST",,40.418453,-79.997337,01,,,,,0
15836,15836,"BELTZHOOVER + FREELAND",,40.419206,-79.997358,01,,,,,0
15838,15838,"BELTZHOOVER + FREELAND",,40.419026,-79.997262,01,,,,,0
15839,15839,"BELTZHOOVER + ORCHARD",,40.417847,-79.997214,01,,,,,0
15842,15842,"GRANDVIEW AVE + #1209 (DUQUESNE INCLINE)",,40.438188,-80.018936,01,,,,,0
15844,15844,"FINGAL ST + #225(FINGAL/RUTLDGE TERMIN)",,40.440038,-80.027037,01,,,,,0
15851,15851,"WALMART + SHELTER (N VERSAILLES)",,40.387864,-79.823247,01,,,,,0
15853,15853,"WATERFRONT DRIVE + COMMONWEALTH BANK",,40.413344,-79.907259,01,,,,,0
1587,1587,"NORTH AVE + ARCH ST",,40.455176,-80.008476,01,,,,,0
15874,20379,"WATERFRONT DRIVE + RECREATION CENTER",,40.413917,-79.904917,01,,,,,0
15876,15876,"MOUNTAINVIEW DR + CENTURY DR FS",,40.346586,-79.951512,01,,,,,0
15878,15878,"EAST BUSWAY + HAMNETT STATION C",,40.437189,-79.885613,01,,,,,0
15879,15879,"EAST BUSWAY + ROSLYN STATION C",,40.419440,-79.886376,01,,,,,0
15880,15880,"EAST BUSWAY + WILKINSBURG STATION C",,40.446887,-79.888646,01,,,,,0
15881,15881,"WEST COMMONS + THE ALLEGHENY SENIOR HOME",,40.450584,-80.007149,01,,,,,0
15885,15885,"RUTH ST + KATHLEEN",,40.425795,-80.005168,01,,,,,0
15886,15886,"KATHLEEN + HARWOOD",,40.425450,-80.004162,01,,,,,0
15887,15887,"KATHLEEN + HABERMAN",,40.425539,-80.002824,01,,,,,0
1589,1589,"NORTH AVE + MONTEREY ST",,40.454419,-80.012437,01,,,,,0
1590,1590,"NORTH AVE + BRIGHTON RD",,40.454075,-80.014394,01,,,,,0
15908,15908,"CENTURY SQUARE ENTRANCE RAMP + MOUNTIANVIEW",,40.347555,-79.949110,01,,,,,0
1591,1591,"BRIGHTON RD + TAYLOR AVE",,40.455793,-80.015169,01,,,,,0
1592,18313,"BRIGHTON RD + JACKSONIA ST FS",,40.457044,-80.015594,01,,,,,0
1593,1593,"BRIGHTON RD + COLUMBIA PL",,40.458351,-80.016021,01,,,,,0
1594,1594,"BRIGHTON RD + CHARLES",,40.459609,-80.016874,01,,,,,0
15946,15946,"GRANT ST + US STEEL STOP B",,40.441664,-79.995195,01,,,,,0
15952,15952,"PENNSYLVANIA + BRIGHTON",,40.456026,-80.015513,01,,,,,0
1596,1596,"BRIGHTON RD + FARRIS ST STEPS",,40.463029,-80.020522,01,,,,,0
15974,15974,"GRAND AVE + HUBERT (NEVILLE PNR)",,40.512871,-80.135091,01,,,,,0
15980,15980,"SILVER LANE + DIANA FS",,40.459539,-80.138833,01,,,,,0
1599,1599,"BRIGHTON RD + OLIVER HIGH SCHOOL",,40.463751,-80.022547,01,,,,,0
15991,15991,"GRAND AVE + NEVILLE METALS",,40.506232,-80.106802,01,,,,,0
